<?xml version="1.0" encoding="UTF-8"?>
<spectacles>
<spectacle>
<spectacleid>190</spectacleid>
<title>2 secondes</title>
<author></author>
<subtitle>Burlesque muet</subtitle>
<date>14 novembre - 16h00</date>
<timestamp>1289746800</timestamp>
<lat>43.608216</lat>
<lng>3.888049</lng>
<image></image>
</spectacle>
<spectacle>
<spectacleid>294</spectacleid>
<title>Antigone</title>
<author>Egon Tian</author>
<subtitle>Land art, création in situ, 2010</subtitle>
<date>11 novembre - 12h00</date>
<timestamp>1289473200</timestamp>
<lat>43.607671</lat>
<lng>3.89581</lng>
<image></image>
</spectacle>
<spectacle>
<spectacleid>330</spectacleid>
<title>Antigone à New York de Glowacki</title>
<author></author>
<subtitle>Lecture théâtrale</subtitle>
<date>13 novembre - 21h00</date>
<timestamp>1289678400</timestamp>
<lat>43.607687</lat>
<lng>3.89521</lng>
<image></image>
</spectacle>
<spectacle>
<spectacleid>337</spectacleid>
<title>Antigone de Bauchau</title>
<author></author>
<subtitle>Lecture théâtrale</subtitle>
<date>13 novembre - 23h59</date>
<timestamp>1289689140</timestamp>
<lat>43.607687</lat>
<lng>3.89521</lng>
<image></image>
</spectacle>
<spectacle>
<spectacleid>323</spectacleid>
<title>Antigone de Bertold Brecht</title>
<author></author>
<subtitle>Lecture théâtrale</subtitle>
<date>13 novembre - 18h00</date>
<timestamp>1289667600</timestamp>
<lat>43.607687</lat>
<lng>3.89521</lng>
<image></image>
</spectacle>
<spectacle>
<spectacleid>316</spectacleid>
<title>Antigone de Jean Anouilh</title>
<author>Cie Mœbius</author>
<subtitle>Lecture théâtrale</subtitle>
<date>13 novembre - 15h00</date>
<timestamp>1289656800</timestamp>
<lat>43.607805</lat>
<lng>3.893979</lng>
<image></image>
</spectacle>
<spectacle>
<spectacleid>226</spectacleid>
<title>Antigone de Sophocle</title>
<author>Cie Mœbius</author>
<subtitle>Lecture théâtrale</subtitle>
<date>13 novembre - 12h00</date>
<timestamp>1289646000</timestamp>
<lat>43.607687</lat>
<lng>3.89521</lng>
<image></image>
</spectacle>
<spectacle>
<spectacleid>284</spectacleid>
<title>Antigone(s) remixées</title>
<author>Collectif Akrylonumerik</author>
<subtitle>Performance street art numérique, création 2010</subtitle>
<date>13 novembre - 11h00</date>
<timestamp>1289642400</timestamp>
<lat>43.607836</lat>
<lng>3.893544</lng>
<image></image>
</spectacle>
<spectacle>
<spectacleid>150</spectacleid>
<title>Beau Travail</title>
<author>Compagnie 1 Watt</author>
<subtitle>Performance, création en cours</subtitle>
<date>13 novembre - 14h00</date>
<timestamp>1289653200</timestamp>
<lat>43.608092</lat>
<lng>3.889956</lng>
<image></image>
</spectacle>
<spectacle>
<spectacleid>3</spectacleid>
<title>Bodies in urban spaces</title>
<author>Compagnie Willi Dorner</author>
<subtitle></subtitle>
<date>11 novembre - 14h00</date>
<timestamp>1289480400</timestamp>
<lat>43.607114</lat>
<lng>3.880714</lng>
<image>carte-spectacle--bodies-in-urban-spaces.jpg</image>
</spectacle>
<spectacle>
<spectacleid>180</spectacleid>
<title>Chaque matin...</title>
<author>Etienne Bossut</author>
<subtitle>Installation</subtitle>
<date>11 novembre - 14h00</date>
<timestamp>1289480400</timestamp>
<lat>43.607903</lat>
<lng>3.890597</lng>
<image>carte-spectacle--chaque-matin.jpg</image>
</spectacle>
<spectacle>
<spectacleid>115</spectacleid>
<title>Clairière urbaine</title>
<author>Cie Retouramont</author>
<subtitle>Pièce chorégraphique et plastique, création 2010</subtitle>
<date>13 novembre - 21h00</date>
<timestamp>1289678400</timestamp>
<lat>43.608154</lat>
<lng>3.888899</lng>
<image></image>
</spectacle>
<spectacle>
<spectacleid>256</spectacleid>
<title>Conférence</title>
<author></author>
<subtitle>Ricardo Bofill</subtitle>
<date>13 novembre - 10h00</date>
<timestamp>1289638800</timestamp>
<lat>43.607746</lat>
<lng>3.880286</lng>
<image></image>
</spectacle>
<spectacle>
<spectacleid>196</spectacleid>
<title>Dans la solitude des champs de coton - en rue</title>
<author>Cie Géométrie Variable</author>
<subtitle>Théâtre</subtitle>
<date>11 novembre - 20h30</date>
<timestamp>1289503800</timestamp>
<lat>43.607561</lat>
<lng>3.890538</lng>
<image>carte-spectacle--dans-la-solitude-des-champs-de-coton.jpg</image>
</spectacle>
<spectacle>
<spectacleid>168</spectacleid>
<title>En dérangement</title>
<author>Cie du Petit Monsieur</author>
<subtitle>Burlesque muet</subtitle>
<date>11 novembre - 15h15</date>
<timestamp>1289484900</timestamp>
<lat>43.607909</lat>
<lng>3.891808</lng>
<image>carte-spectacle--en-d-rangement.jpg</image>
</spectacle>
<spectacle>
<spectacleid>121</spectacleid>
<title>Encore</title>
<author>Etienne Bossut</author>
<subtitle>Installation</subtitle>
<date>12 novembre - 19h00</date>
<timestamp>1289584800</timestamp>
<lat>43.609018</lat>
<lng>3.888884</lng>
<image>carte-spectacle--encore.jpg</image>
</spectacle>
<spectacle>
<spectacleid>250</spectacleid>
<title>Envol vers les étoiles</title>
<author>Pierre de Mecquenem, La Machine</author>
<subtitle>Lâcher de lanternes célestes</subtitle>
<date>14 novembre - 18h00</date>
<timestamp>1289754000</timestamp>
<lat>43.607687</lat>
<lng>3.89521</lng>
<image>carte-spectacle--envol-vers-les-toiles.png</image>
</spectacle>
<spectacle>
<spectacleid>91</spectacleid>
<title>Flammes</title>
<author>Pierre de Mecquenem, La Machine</author>
<subtitle>Installation de feu, création in situ</subtitle>
<date>11 novembre - 17h30</date>
<timestamp>1289493000</timestamp>
<lat>43.608092</lat>
<lng>3.889956</lng>
<image>carte-spectacle--flammes.jpg</image>
</spectacle>
<spectacle>
<spectacleid>274</spectacleid>
<title>Grand pique-nique</title>
<author>La Pratique</author>
<subtitle>traiteur et art culinaire</subtitle>
<date>14 novembre - 12h00</date>
<timestamp>1289732400</timestamp>
<lat>43.608216</lat>
<lng>3.888049</lng>
<image>carte-spectacle--grand-pique-nique.jpg</image>
</spectacle>
<spectacle>
<spectacleid>232</spectacleid>
<title>Habiter l'espace : devenir stylite, monter plein ciel</title>
<author></author>
<subtitle>Ateliers proposés aux spectateurs</subtitle>
<date>11 novembre - 17h00</date>
<timestamp>1289491200</timestamp>
<lat>43.607561</lat>
<lng>3.890538</lng>
<image>carte-spectacle--habiter-l-espace-devenir-stylite-monter-plein-ciel.jpg</image>
</spectacle>
<spectacle>
<spectacleid>220</spectacleid>
<title>Hier, aujourd'hui, demain</title>
<author>Nicolas Lefevre</author>
<subtitle>Installation photographique et multimédia, création 2010 </subtitle>
<date>11 novembre - 12h00</date>
<timestamp>1289473200</timestamp>
<lat>43.607945</lat>
<lng>3.887362</lng>
<image></image>
</spectacle>
<spectacle>
<spectacleid>202</spectacleid>
<title>Il était une fois Antigone(s)</title>
<author>Collectif Akrylonumerik</author>
<subtitle>Performance street art numérique, création 2010</subtitle>
<date>12 novembre - 21h00</date>
<timestamp>1289592000</timestamp>
<lat>43.607836</lat>
<lng>3.893544</lng>
<image>carte-spectacle--il-tait-une-fois-antigone-s.jpg</image>
</spectacle>
<spectacle>
<spectacleid>97</spectacleid>
<title>Instinct</title>
<author>Cie Yann Lheureux</author>
<subtitle>Danse création 2010</subtitle>
<date>11 novembre - 17h30</date>
<timestamp>1289493000</timestamp>
<lat>43.608216</lat>
<lng>3.888049</lng>
<image></image>
</spectacle>
<spectacle>
<spectacleid>244</spectacleid>
<title>Je suis membre</title>
<author>Dimoné</author>
<subtitle>Chanson, création 2010</subtitle>
<date>11 novembre - 14h00</date>
<timestamp>1289480400</timestamp>
<lat>43.608216</lat>
<lng>3.888049</lng>
<image></image>
</spectacle>
<spectacle>
<spectacleid>143</spectacleid>
<title>L'embrasement du Nombre d'Or</title>
<author>Pierre de Mecquenem, La Machine</author>
<subtitle>Moment pyrotechnique participatif et musical, création in situ</subtitle>
<date>13 novembre - 22h00</date>
<timestamp>1289682000</timestamp>
<lat>43.608216</lat>
<lng>3.888049</lng>
<image>carte-spectacle--l-embrasement-du-nombre-d-or.jpg</image>
</spectacle>
<spectacle>
<spectacleid>174</spectacleid>
<title>Le choc de Vénus</title>
<author>Zevs</author>
<subtitle>Installation</subtitle>
<date>11 novembre - 18h30</date>
<timestamp>1289496600</timestamp>
<lat>43.608139</lat>
<lng>3.89081</lng>
<image></image>
</spectacle>
<spectacle>
<spectacleid>387</spectacleid>
<title>Les clés d'Antigone</title>
<author></author>
<subtitle>Présentation documentaire</subtitle>
<date>12 novembre - 12h00</date>
<timestamp>1289559600</timestamp>
<lat>43.607114</lat>
<lng>3.880714</lng>
<image></image>
</spectacle>
<spectacle>
<spectacleid>103</spectacleid>
<title>Parfait état de marche</title>
<author>Compagnie 1 Watt</author>
<subtitle>Performance de rue</subtitle>
<date>11 novembre - 16h00</date>
<timestamp>1289487600</timestamp>
<lat>43.608216</lat>
<lng>3.888049</lng>
<image>carte-spectacle--parfait-tat-de-marche.jpg</image>
</spectacle>
<spectacle>
<spectacleid>214</spectacleid>
<title>Prendre la mesure d'Antigone</title>
<author>labopc</author>
<subtitle>Ateliers chorégraphiques publics</subtitle>
<date>11 novembre - 15h00</date>
<timestamp>1289484000</timestamp>
<lat>43.607687</lat>
<lng>3.89521</lng>
<image></image>
</spectacle>
<spectacle>
<spectacleid>109</spectacleid>
<title>Sans titre (Chairs and Tables Sound Piece)</title>
<author>Angela Bulloch</author>
<subtitle>Installation sonore</subtitle>
<date>11 novembre - 12h00</date>
<timestamp>1289473200</timestamp>
<lat>43.607776</lat>
<lng>3.887598</lng>
<image>carte-spectacle--sans-titre-chairs-and-tables-sound-piece.jpg</image>
</spectacle>
<spectacle>
<spectacleid>268</spectacleid>
<title>Tarzan</title>
<author>Johan Lorbeer</author>
<subtitle>Performance</subtitle>
<date>13 novembre - 14h30</date>
<timestamp>1289655000</timestamp>
<lat>43.607836</lat>
<lng>3.893544</lng>
<image>carte-spectacle--tarzan.jpg</image>
</spectacle>
<spectacle>
<spectacleid>133</spectacleid>
<title>The Bal</title>
<author>Cie François Rascalou</author>
<subtitle>Bal contemporain sous les étoiles</subtitle>
<date>13 novembre - 22h15</date>
<timestamp>1289682900</timestamp>
<lat>43.608216</lat>
<lng>3.888049</lng>
<image>carte-spectacle--the-bal.jpg</image>
</spectacle>
<spectacle>
<spectacleid>306</spectacleid>
<title>Trois questions à Antigone</title>
<author></author>
<subtitle>Installation sonore</subtitle>
<date>11 novembre - 14h00</date>
<timestamp>1289480400</timestamp>
<lat>43.607687</lat>
<lng>3.89521</lng>
<image></image>
</spectacle>
<spectacle>
<spectacleid>156</spectacleid>
<title>Zarbi la Grecque</title>
<author>ANPU Agence Nationale de Psychanalyse Urbaine</author>
<subtitle>Psychanalyse urbaine du quartier Antigone </subtitle>
<date>11 novembre - 18h00</date>
<timestamp>1289494800</timestamp>
<lat>43.607561</lat>
<lng>3.890538</lng>
<image>carte-spectacle--zarbi-la-grecque.jpg</image>
</spectacle>
<spectacle>
<spectacleid>208</spectacleid>
<title>Zébrer la zat</title>
<author>Malte Martin</author>
<subtitle>Interventions scénographiques</subtitle>
<date>11 novembre - 09h00</date>
<timestamp>1289462400</timestamp>
<lat>43.608277</lat>
<lng>3.886623</lng>
<image></image>
</spectacle>
<spectacle>
<spectacleid>238</spectacleid>
<title>Zone d'apéro temporaire</title>
<author></author>
<subtitle>Rencontre artistes-spectateurs</subtitle>
<date>11 novembre - 19h00</date>
<timestamp>1289498400</timestamp>
<lat>43.609018</lat>
<lng>3.888884</lng>
<image></image>
</spectacle>
</spectacles>
