<?xml version="1.0" encoding="UTF-8"?>
<spectacles>
<spectacle>
<spectacleid>536</spectacleid>
<title>24 Heures de la Vie d'une Femme et d'un Cheval</title>
<author>Eva Shoshana Schakmundès - Compagnie Salam Toto</author>
<subtitle></subtitle>
<date>25 avril - 06h46</date>
<timestamp>1303706760</timestamp>
<lat>43.631393</lat>
<lng>3.891603</lng>
<image>11-24-heures-de-la-vie-d-une-femme-et-d-un-cheval.jpg</image>
</spectacle>
<spectacle>
<spectacleid>544</spectacleid>
<title>Atelier "Enfin aveugle !"</title>
<author>Lorentino</author>
<subtitle></subtitle>
<date>25 avril - 11h00</date>
<timestamp>1303722000</timestamp>
<lat>43.630849</lat>
<lng>3.893137</lng>
<image></image>
</spectacle>
<spectacle>
<spectacleid>523</spectacleid>
<title>Atelier de cueillette et cuisine de salades sauvages</title>
<author>Michel Valantin</author>
<subtitle></subtitle>
<date>23 avril - 10h00</date>
<timestamp>1303545600</timestamp>
<lat>43.631571</lat>
<lng>3.890551</lng>
<image></image>
</spectacle>
<spectacle>
<spectacleid>533</spectacleid>
<title>Atelier « Le myope voit tout »</title>
<author>Lorentino</author>
<subtitle></subtitle>
<date>24 avril - 14h00</date>
<timestamp>1303646400</timestamp>
<lat>43.630173</lat>
<lng>3.890787</lng>
<image></image>
</spectacle>
<spectacle>
<spectacleid>521</spectacleid>
<title>Atelier « Masque paysage »</title>
<author>Lorentino</author>
<subtitle></subtitle>
<date>23 avril - 10h00</date>
<timestamp>1303545600</timestamp>
<lat>43.628449</lat>
<lng>3.890637</lng>
<image></image>
</spectacle>
<spectacle>
<spectacleid>518</spectacleid>
<title>Atelier « Point de suspension » </title>
<author>Compagnie Yoann Bourgeois</author>
<subtitle></subtitle>
<date>23 avril - 10h00</date>
<timestamp>1303545600</timestamp>
<lat>43.631393</lat>
<lng>3.891603</lng>
<image></image>
</spectacle>
<spectacle>
<spectacleid>560</spectacleid>
<title>Base d'envol poétique</title>
<author>Les Souffleurs commandos poétiques</author>
<subtitle></subtitle>
<date>25 avril - 15h00</date>
<timestamp>1303736400</timestamp>
<lat>43.630779</lat>
<lng>3.891753</lng>
<image></image>
</spectacle>
<spectacle>
<spectacleid>506</spectacleid>
<title>Blow off</title>
<author>Eric Hemme</author>
<subtitle></subtitle>
<date>23 avril - 10h00</date>
<timestamp>1303545600</timestamp>
<lat>43.629265</lat>
<lng>3.891785</lng>
<image></image>
</spectacle>
<spectacle>
<spectacleid>470</spectacleid>
<title>Cachée</title>
<author>Lorentino</author>
<subtitle></subtitle>
<date>23 avril - 06h49</date>
<timestamp>1303534140</timestamp>
<lat>43.630849</lat>
<lng>3.893137</lng>
<image></image>
</spectacle>
<spectacle>
<spectacleid>513</spectacleid>
<title>Chuttt… Chuttt… Shut up !</title>
<author>Dimoné</author>
<subtitle></subtitle>
<date>23 avril - 10h00</date>
<timestamp>1303545600</timestamp>
<lat>43.632037</lat>
<lng>3.891624</lng>
<image></image>
</spectacle>
<spectacle>
<spectacleid>516</spectacleid>
<title>Cocons</title>
<author>labopc</author>
<subtitle></subtitle>
<date>23 avril - 07h30</date>
<timestamp>1303536600</timestamp>
<lat>43.628449</lat>
<lng>3.890637</lng>
<image></image>
</spectacle>
<spectacle>
<spectacleid>543</spectacleid>
<title>Conférence "entre chien et loup" : comment Méric se prépare à la nuit</title>
<author>Michel Valantin</author>
<subtitle></subtitle>
<date>23 avril - 20h00</date>
<timestamp>1303581600</timestamp>
<lat>43.631323</lat>
<lng>3.892075</lng>
<image></image>
</spectacle>
<spectacle>
<spectacleid>558</spectacleid>
<title>Conférence et parcours « À Méric, au cœur des paysages familiers de Bazille »</title>
<author></author>
<subtitle></subtitle>
<date>23 avril - 14h15</date>
<timestamp>1303560900</timestamp>
<lat>43.631323</lat>
<lng>3.892075</lng>
<image></image>
</spectacle>
<spectacle>
<spectacleid>540</spectacleid>
<title>Conférence sur les oiseaux de Méric</title>
<author>Les Chanteurs d'oiseaux</author>
<subtitle></subtitle>
<date>25 avril - 17h00</date>
<timestamp>1303743600</timestamp>
<lat>43.631323</lat>
<lng>3.892075</lng>
<image></image>
</spectacle>
<spectacle>
<spectacleid>553</spectacleid>
<title>Exposition du tableau "Frédéric Bazille peint Pomone" de Philippe Pradalié</title>
<author>Philippe Pradalié</author>
<subtitle></subtitle>
<date>23 avril - 10h00</date>
<timestamp>1303545600</timestamp>
<lat>43.632014</lat>
<lng>3.891624</lng>
<image></image>
</spectacle>
<spectacle>
<spectacleid>517</spectacleid>
<title>Fugue / Trampoline </title>
<author>Compagnie Yoann Bourgeois</author>
<subtitle></subtitle>
<date>23 avril - 09h00</date>
<timestamp>1303542000</timestamp>
<lat>43.63109</lat>
<lng>3.890895</lng>
<image></image>
</spectacle>
<spectacle>
<spectacleid>532</spectacleid>
<title>Goûter des petits</title>
<author></author>
<subtitle></subtitle>
<date>23 avril - 16h00</date>
<timestamp>1303567200</timestamp>
<lat>43.628978</lat>
<lng>3.89083</lng>
<image></image>
</spectacle>
<spectacle>
<spectacleid>555</spectacleid>
<title>Inauguration de la ZAT</title>
<author></author>
<subtitle></subtitle>
<date>23 avril - 12h05</date>
<timestamp>1303553100</timestamp>
<lat>43.631323</lat>
<lng>3.892075</lng>
<image></image>
</spectacle>
<spectacle>
<spectacleid>508</spectacleid>
<title>Jeux d'enfants</title>
<author>Guillaume Martial</author>
<subtitle></subtitle>
<date>23 avril - 06h49</date>
<timestamp>1303534140</timestamp>
<lat>43.630927</lat>
<lng>3.892193</lng>
<image></image>
</spectacle>
<spectacle>
<spectacleid>509</spectacleid>
<title>Kandahar</title>
<author>Émeric Lhuisset et Aman Mojadidi</author>
<subtitle></subtitle>
<date>23 avril - 09h00</date>
<timestamp>1303542000</timestamp>
<lat>43.631105</lat>
<lng>3.891667</lng>
<image></image>
</spectacle>
<spectacle>
<spectacleid>512</spectacleid>
<title>L'arbre à chut</title>
<author>labopc</author>
<subtitle></subtitle>
<date>23 avril - 06h49</date>
<timestamp>1303534140</timestamp>
<lat>43.628449</lat>
<lng>3.890637</lng>
<image></image>
</spectacle>
<spectacle>
<spectacleid>537</spectacleid>
<title>Le Mérictionnaire</title>
<author></author>
<subtitle></subtitle>
<date>23 avril - 10h00</date>
<timestamp>1303545600</timestamp>
<lat>43.632014</lat>
<lng>3.891624</lng>
<image></image>
</spectacle>
<spectacle>
<spectacleid>559</spectacleid>
<title>Le Vertige</title>
<author>Stéphan Oliva</author>
<subtitle></subtitle>
<date>24 avril - 11h00</date>
<timestamp>1303635600</timestamp>
<lat>43.628978</lat>
<lng>3.89083</lng>
<image></image>
</spectacle>
<spectacle>
<spectacleid>531</spectacleid>
<title>Les contes dits du bout des doigts</title>
<author>Compagnie Les Compagnons de Pierre Ménard</author>
<subtitle></subtitle>
<date>23 avril - 15h30</date>
<timestamp>1303565400</timestamp>
<lat>43.628978</lat>
<lng>3.89083</lng>
<image></image>
</spectacle>
<spectacle>
<spectacleid>538</spectacleid>
<title>Les contes du pêcheur perché</title>
<author>Jordi Cardoner, Compagnie BAO</author>
<subtitle></subtitle>
<date>25 avril - 11h00</date>
<timestamp>1303722000</timestamp>
<lat>43.629319</lat>
<lng>3.893614</lng>
<image></image>
</spectacle>
<spectacle>
<spectacleid>524</spectacleid>
<title>Les fabulations de l'écho</title>
<author>Compagnie Musicabrass</author>
<subtitle></subtitle>
<date>23 avril - 11h00</date>
<timestamp>1303549200</timestamp>
<lat>43.631571</lat>
<lng>3.890551</lng>
<image>11-les-fabulations-de-l-echo.jpg</image>
</spectacle>
<spectacle>
<spectacleid>534</spectacleid>
<title>Les Lecteurs</title>
<author>David Rolland Chorégraphies</author>
<subtitle></subtitle>
<date>24 avril - 17h30</date>
<timestamp>1303659000</timestamp>
<lat>43.628978</lat>
<lng>3.89083</lng>
<image></image>
</spectacle>
<spectacle>
<spectacleid>551</spectacleid>
<title>Les Messagers des oiseaux</title>
<author>Les Chanteurs d'oiseaux</author>
<subtitle></subtitle>
<date>25 avril - 15h00</date>
<timestamp>1303736400</timestamp>
<lat>43.631571</lat>
<lng>3.890551</lng>
<image></image>
</spectacle>
<spectacle>
<spectacleid>522</spectacleid>
<title>Les Miniatures </title>
<author>Compagnie Pernette</author>
<subtitle></subtitle>
<date>23 avril - 10h30</date>
<timestamp>1303547400</timestamp>
<lat>43.630927</lat>
<lng>3.892193</lng>
<image></image>
</spectacle>
<spectacle>
<spectacleid>542</spectacleid>
<title>Les Oiseaux de Méric</title>
<author>Stéphan Oliva et les Chanteurs d'oiseaux</author>
<subtitle></subtitle>
<date>25 avril - 18h15</date>
<timestamp>1303748100</timestamp>
<lat>43.628978</lat>
<lng>3.89083</lng>
<image></image>
</spectacle>
<spectacle>
<spectacleid>505</spectacleid>
<title>Les Pheuillus de Méric</title>
<author>Compagnie Le Phun</author>
<subtitle></subtitle>
<date>23 avril - 06h49</date>
<timestamp>1303534140</timestamp>
<lat>43.631571</lat>
<lng>3.890551</lng>
<image></image>
</spectacle>
<spectacle>
<spectacleid>519</spectacleid>
<title>Les Pheuillus de Méric - parcours</title>
<author>Compagnie Le Phun</author>
<subtitle></subtitle>
<date>23 avril - 09h00</date>
<timestamp>1303542000</timestamp>
<lat>43.631571</lat>
<lng>3.890551</lng>
<image></image>
</spectacle>
<spectacle>
<spectacleid>529</spectacleid>
<title>Les Rêves de Bazille</title>
<author>Stéphan Oliva</author>
<subtitle></subtitle>
<date>24 avril - 11h00</date>
<timestamp>1303635600</timestamp>
<lat>43.628978</lat>
<lng>3.89083</lng>
<image></image>
</spectacle>
<spectacle>
<spectacleid>530</spectacleid>
<title>Manuel, laveur de mains</title>
<author>Compagnie Les Veilleurs, Christophe Guétat</author>
<subtitle></subtitle>
<date>23 avril - 15h00</date>
<timestamp>1303563600</timestamp>
<lat>43.631571</lat>
<lng>3.890551</lng>
<image></image>
</spectacle>
<spectacle>
<spectacleid>570</spectacleid>
<title>Massage sous les pommiers </title>
<author></author>
<subtitle></subtitle>
<date>23 avril - 14h00</date>
<timestamp>1303560000</timestamp>
<lat>43.630771</lat>
<lng>3.891742</lng>
<image></image>
</spectacle>
<spectacle>
<spectacleid>528</spectacleid>
<title>Miroir, miroir</title>
<author>Compagnie Happés</author>
<subtitle></subtitle>
<date>23 avril - 14h00</date>
<timestamp>1303560000</timestamp>
<lat>43.628978</lat>
<lng>3.89083</lng>
<image></image>
</spectacle>
<spectacle>
<spectacleid>568</spectacleid>
<title>Montée de sève</title>
<author>Stéphan Oliva</author>
<subtitle></subtitle>
<date>25 avril - 09h30</date>
<timestamp>1303716600</timestamp>
<lat>43.628978</lat>
<lng>3.89083</lng>
<image></image>
</spectacle>
<spectacle>
<spectacleid>567</spectacleid>
<title>Oiseaux de nuit</title>
<author>Les Chanteurs d'oiseaux</author>
<subtitle></subtitle>
<date>25 avril - 21h15</date>
<timestamp>1303758900</timestamp>
<lat>43.631571</lat>
<lng>3.890551</lng>
<image></image>
</spectacle>
<spectacle>
<spectacleid>562</spectacleid>
<title>Parcours « Méric et Bazille » </title>
<author></author>
<subtitle></subtitle>
<date>23 avril - 15h30</date>
<timestamp>1303565400</timestamp>
<lat>43.631913</lat>
<lng>3.891678</lng>
<image></image>
</spectacle>
<spectacle>
<spectacleid>515</spectacleid>
<title>Parcours « Méric et Frédéric Bazille »</title>
<author>Michel Valantin</author>
<subtitle></subtitle>
<date>23 avril - 07h30</date>
<timestamp>1303536600</timestamp>
<lat>43.631571</lat>
<lng>3.890551</lng>
<image></image>
</spectacle>
<spectacle>
<spectacleid>554</spectacleid>
<title>Petit déjeuner au lever du soleil </title>
<author></author>
<subtitle></subtitle>
<date>23 avril - 06h49</date>
<timestamp>1303534140</timestamp>
<lat>43.631913</lat>
<lng>3.891678</lng>
<image></image>
</spectacle>
<spectacle>
<spectacleid>565</spectacleid>
<title>Rencontre avec Philippe Chapon et dégustation d’infusions florales</title>
<author></author>
<subtitle></subtitle>
<date>24 avril - 17h15</date>
<timestamp>1303658100</timestamp>
<lat>43.631323</lat>
<lng>3.892075</lng>
<image></image>
</spectacle>
<spectacle>
<spectacleid>563</spectacleid>
<title>Rencontre avec Philippe Pradalié, à propos de « Frédéric Bazille peint Pomone »</title>
<author>Philippe Pradalié</author>
<subtitle></subtitle>
<date>23 avril - 17h00</date>
<timestamp>1303570800</timestamp>
<lat>43.631323</lat>
<lng>3.892075</lng>
<image></image>
</spectacle>
<spectacle>
<spectacleid>564</spectacleid>
<title>Rencontre et parcours : comment Montpellier cultive la nature en ville? </title>
<author></author>
<subtitle></subtitle>
<date>24 avril - 07h30</date>
<timestamp>1303623000</timestamp>
<lat>43.631323</lat>
<lng>3.892075</lng>
<image></image>
</spectacle>
<spectacle>
<spectacleid>583</spectacleid>
<title>Sieste sous les pommiers </title>
<author></author>
<subtitle></subtitle>
<date>23 avril - 09h00</date>
<timestamp>1303542000</timestamp>
<lat>43.630771</lat>
<lng>3.891742</lng>
<image>11-sieste-sous-les-pommiers.jpg</image>
</spectacle>
<spectacle>
<spectacleid>520</spectacleid>
<title>Un thé sur le Lez</title>
<author></author>
<subtitle></subtitle>
<date>23 avril - 09h30</date>
<timestamp>1303543800</timestamp>
<lat>43.632604</lat>
<lng>3.892665</lng>
<image>11-un-the-sur-le-lez.jpg</image>
</spectacle>
<spectacle>
<spectacleid>510</spectacleid>
<title>Zone d'Abordage Temporaire</title>
<author>ZAT en partenariat avec le collectif Dream City (Tunis)</author>
<subtitle></subtitle>
<date>23 avril - 10h00</date>
<timestamp>1303545600</timestamp>
<lat>43.631913</lat>
<lng>3.891678</lng>
<image></image>
</spectacle>
<spectacle>
<spectacleid>526</spectacleid>
<title>Zone d'Apéro Temporaire</title>
<author></author>
<subtitle></subtitle>
<date>23 avril - 19h00</date>
<timestamp>1303578000</timestamp>
<lat>43.631323</lat>
<lng>3.892075</lng>
<image></image>
</spectacle>
</spectacles>
