ID_MTPWEB;CATEGORIE;NOM;QUARTIER;SOUSQUARTIER;TELEPHONE;FAX;COURRIEL;SITEWEB;STATIONNEMENT;ID_GIS_DELTA;LATITUDE;LONGITUDE;ADDR_NUMERO;ADDR_SUFFIXE;ADDR_VOIETYPE;ADDR_NOMVOIE;ADDR_COMPLEMENTAIRE;ADDR_CODEPOSTAL;ADDR_VILLE;ADDR_CEDEX;AME_ACCESSIBILITEGENERALE;AME_BOUCLEMAGNETIQUE;AME_TOILETTE;AME_ASCENSEUR;AME_PLACESTATIONNEMENT;AME_ACCESSIBILITESTATIONNEMENT;ACCES_PRECISION;ACCES_TRAM;ACCES_BUS;COMMENTAIRE;ENSAVOIRPLUS
404;Lycées;Lycée Agropolis;Hôpitaux - Facultés;;04 67 63 89 89;04 67 63 26 36;;;;70009600;43.6465099873;3.86416642895;3224;;route de Mende;;;34093;Montpellier;Cedex 5;;0;;;;;;;;<ul><li>Section enseignement général et technologique </li><li>Avec internat et demi-pension</li></ul>;
1219;Musées;Agropolis Museum;Hôpitaux - Facultés;;04 67 04 75 00;;museum@agropolis.fr;www.museum.agropolis.fr;;274;43.6462560065;3.86794968574;951;;avenue Agropolis;;;34394;Montpellier 5;5;;0;;;;;;;;<p>Agropolis-Museum est un musée de science et de société, un lieu unique pour découvrir un autre monde à travers l'alimentation et les hommes qui la produisent. </p>;
1292;Centres de recherche;Institut de recherche pour le développement (IRD);Hôpitaux - Facultés;;04 67 41 61 00;04 67 41 63 30;;www.mpl.ird.fr;;39645;43.6451942948;3.86747599572;911;;avenue Agropolis;;;34394;Montpellier;cedex 5;;0;;;;;;;;<p>L'IRD a pour mission de développer des projets scientifiques centrés sur les relations entre l'homme et son environnement dans la zone intertropicale.</p>;
752;Crèches municipales;Crèche Agropolis;Hôpitaux - Facultés;;04 67 41 20 97;;;;;834;43.6446658852;3.87006461137;30;;rue Jean-François-Breton;;;34090;Montpellier;;;0;;;;;;;;;
1281;Hôpitaux;Centre Val d'Aurelle-Paul Lamarque;;;04 67 61 31 00;;;www.valdorel.fnclcc.fr/;;39073;43.6435108463;3.83794994554;208;;rue;des Apothicaires;parc Euromédecin;34298;Montpellier;;;0;;;;;;"T1, descendre à la station ""Occitanie"" ";"bus n° 16, direction ""Euromédecine"", descendre à l'arrêt ""Antennes"" pour Val d'Aurelle A ou arrêt ""Val d'Aurelle"" pour Val d'Aurelle B.";"<p>Le centre Val d'Aurelle-Paul Lamarque est le Centre R&#233;gional de Lutte contre le Cancer (CRLC) de la r&#233;gion Languedoc-Roussillon.</p> <p>L'&#233;tablissement, situ&#233; &#224; Montpellier, est sp&#233;cialis&#233; dans le traitement du cancer, la recherche, l' enseignement et la pr&#233;vention.</p> <p>Pr&#232;s de 750 professionnels oeuvrent quotidiennement pour proposer des soins de qualit&#233;.</p>";"<p><strong>Pr&#233;cisions acc&#232;s :</strong></p> <ul> <li>Par le train :<br>Depuis la gare, tramway ligne T1, direction ""Mosson"", descendre &#224; la station ""Occitanie"" </li> </ul> <p>Continuer par le bus n&#176; 16. direction ""Eurom&#233;decin"", descendre &#224; l'arr&#234;t ""Antennes"" pour Val d'Aurelle A ou arr&#234;t ""Val d'Aurelle"" pour Val d'Aurelle B.</p> <ul> <li>En voiture :<br>Par l' Ouest (Itin&#233;raire) : A9<br>Emprunter la sortie n&#176; 32 : Saint Jean de V&#233;das, suivre la direction Montpellier-Mosson, puis Ganges, Parc Eurom&#233;decine. </li> <li>Par l' Est (Itin&#233;raire) : A9<br>Emprunter la sortie n&#176; 29 : Montpellier Est, suivre la direction Antigone, puis Millau, H&#244;pitaux-Facult&#233;s, Ganges, Parc Eurom&#233;decine. </li> <li>Par le Nord : De Millau ou de Mende A75 (Itin&#233;raire) : Entrer dans Montpellier, suivre la direction Mosson-Grabels, puis Parc Eurom&#233;decine <br>Venir de Ganges (Itin&#233;raire) : Entrer dans Montpellier par la route de Ganges D986, prendre &#224; droite direction Parc Eurom&#233;decine</li> </ul>"
384;Etat;CNFPT Languedoc Roussillon;Hôpitaux - Facultés;;04 67 61 77 77;;;www.lr.cnfpt.fr;;38967;43.6430916727;3.83969126057;337;;rue des Apothicaires;;Parc Euromédecine;34090;Montpellier;;;0;;;;;;;;Centre nationale de la fonction publique territoriale du Languedoc-Roussillon;
1260;Parcs et jardins;La Serre Amazonienne;Hôpitaux - Facultés;;04 67 54 45 23;;;www.zoo.montpellier.fr/;;477;43.6426998691;3.87696267556;50;;avenue ;d'Agropolis;;34090;Montpellier;;;0;;;;;;;"n°9 "" la navette "", direction Agropolis, arrêt "" zoo "".
";"<p style=""MARGIN-RIGHT: 0px"">La Serre Amazonienne de la Ville de Montpellier est une r&#233;alisation unique en France. Recr&#233;ant toutes les caract&#233;ristiques et sp&#233;cificit&#233;s de la for&#234;t amazonienne, elle permet aux visiteurs de d&#233;couvrir plus de 500 animaux et 3 500 v&#233;g&#233;taux. Elle a pour but de sensibiliser&#160;le public&#160;aux beaut&#233;s et aux particularit&#233;s de l'&#233;cosyst&#232;me amazonien et &#224; la n&#233;cessit&#233; de sa pr&#233;servation.<br>La serre amazonienne a &#233;t&#233; inaugur&#233;e le <strong>30 juin 2007</strong>.</p> <p style=""MARGIN-RIGHT: 0px"">&#160;</p> <p style=""MARGIN-RIGHT: 0px"" align=""center""><img src=""/uploads/Image/73/WEB_CHEMIN_6442_1233677404.gif"" alt="" "" width=""357"" height=""236"" align=""left"" idtf=""6442""></p>";"<p style=""MARGIN-RIGHT: 0px""><strong>Toutes les infos pratiques (horaires, tarifs) sur le site zoo.montpellier.fr</strong></p> <p style=""MARGIN-RIGHT: 0px""><strong></strong></p> <p style=""MARGIN-RIGHT: 0px""><strong>L'AMAZOONE le restaurant de la Serre Amazonienne</strong> :</p> <p style=""MARGIN-RIGHT: 0px"">Sur deux niveaux, le restaurant permet d'avoir une vue panoramique sur l'ensemble de la serre et plus particuli&#232;rement sur l'enclos des sakis &#224; face blanche et des tamarins.<br>Il n'est pas rare que ces derniers s'installent derri&#232;re les vitres pour regarder avec convoitise les assiettes des clients.<br>Le restaurant&#160;a une capacit&#233; de 96 places &#224; l&#8217;int&#233;rieur et une terrasse ext&#233;rieure de 80 places.<br><br>Contact : 04 67 29 88 35</p>"
911;Parcs et jardins;Zoo de Montpellier;Hôpitaux - Facultés;;04 67 54 45 23;;;www.zoo.montpellier.fr;;477;43.6426998691;3.87696267556;50;;Avenue ;Val d'Agropolis;;34090;Montpellier;;;0;;;;;;Ligne 1 arrêt St Eloi;puis bus La Navette direction Agropolis Lavalette, arrêt devant l'entrée du zoo.;"<p style=""MARGIN-RIGHT: 0px"">Le zoo de Montpellier n'est pas un ""poumon vert"" comme les autres. Il est comme une formidable synth&#232;se de toutes les esp&#232;ces animales et v&#233;g&#233;tales que l'on peut trouver dans le milieu m&#233;diterran&#233;en au sens le plus large. <br><br>Avec ses quatre vingts hectares, il est aujourd'hui l'espace vert le plus vaste de Montpellier et le lieu de promenade privil&#233;gi&#233; des Montpelli&#233;rains. <br><br>Il abrite, non seulement, le parc zoologique, mais aussi la r&#233;serve naturelle du Lez, la ferme pour enfants et la serre amazonienne.</p>";<p>Toutes les infos pratiques (horaires, tarifs ...) sont sur le site du zoo, consultez-le.</p>
338;Collèges;Collège Les Garrigues;Mosson;Les Hauts de Massane;04 67 10 73 00;04 67 10 73 04;;;;70010500;43.6426324254;3.81710132197;145;;avenue du Comté-de-Nice;;;34085;Montpellier;;;0;;;;;;;;Sans internat - avec demi pension;
38;Ecoles maternelles;Ecole maternelle Jacques-Prévert;Mosson;;04 67 75 64 66;;;;;1040;43.6426142643;3.81573258262;209;;avenue du Comté de Nice;;;34080;Montpellier;;;0;;;;;;;;;
442;Clubs de loisirs;Club de loisirs Le Lac;Mosson;;04 67 45 11 60;;;;;70021300;43.6425476290;3.81808011412;;;Rue Louis Pergaud;;Les Hauts de Massane;34080;Montpellier;;;0;;;;;;;ligne 1;<ul><li> <strong>Inscriptions</strong><br />Se renseigner auprès du bureau Age d'Or, au CCAS ou directement dans les clubs. Service gratuit pour les détenteurs de la carte Age d'Or. </li></ul><ul><li><strong>Horaires d'ouverture</strong><br />du lundi au vendredi, de 11h à 18h. </li></ul><ul><li><strong>Animations</strong>Jeux de société, lotos, bals,Chorale,  peinture sur verre/porcelaine , gymnastique, sorties, fêtes, conférences, théâtre,Lecture/Parole/Ecriture, tennis de table. <br /><br />Rencontres inter-générations <br />Jardin inter-générations<br /> </li></ul>;
420;Mairies annexes;Mairie annexe des Hauts de Massane;Mosson;Les Hauts de Massane;04 67 45 45 09 - 04 67 40 40 11;;;;;1780;43.6424014680;3.81824229991;;;Place ;Jacques Brel;Les Hauts de Massane - Maison pour tous Georges-Brassens;34080;Montpellier;;;0;;;;;;;ligne 15 arrêt place d'Italie;"<ul> <li>&#160;Heures d&#8217;ouverture : de 8h45 &#224; 12h15 et de 13h00 &#224; 16h30</li> <li>&#160;<a id=""11312"" href=""#"" typelien=""LienDocument"">Modalit&#233; de d&#233;livrance des Passeports biom&#233;triques</a></li> </ul> <ul> <li>Dans les locaux de la <a id=""518"" href=""#"" title=""Lien vers la Maison pour tous Georges Brassens"" typelien=""LienInterne"">Maison pour tous Georges-Brassens</a> </li> </ul>";
184;Escalade;Mur d'escalade Les Garrigues;Mosson;La Paillade;;;;;;743;43.6422669773;3.81718546969;;;Avenue de Naples;;Lac des Garrigues;34080;Montpellier;;;0;;;;;;;;;
319;Maisons pour tous;Maison pour tous Georges Brassens;Mosson;Les Hauts de Massane;04 67 40 40 11;04 67 45 18 88;mptbrassens@mpt.ville-montpellier.fr;;Parking tout public;1492;43.6421885569;3.81800071487;;;Place;Jacques-Brel;Les Hauts de Massane;34080;Montpellier;;;0;AUX_NORMES;;;;;ligne 1 station Hauts de Massane;15 arrêt Place d'Italie;"<p><strong>Accueil et renseignement </strong><br>du lundi au vendredi de 9h &#224; 19h30</p>";
29;Ecoles maternelles;Ecole maternelle Agrippa d'Aubigné;Hôpitaux - Facultés;;04 67 63 24 20;;;;;951;43.6421198487;3.85650119060;147;;rue des Quatre Seigneurs;;;34090;Montpellier;;;0;;;;;;;;<p> </p>;
197;Gymnases;Gymnase Les Garrigues;Mosson;;;;;;;1645;43.6420903565;3.81597492342;145;;avenue du Comté-de-Nice;;;34080;Montpellier;;;0;;;;;;;;<h5> Clubs sportifs et disciplines<br /> </h5><ul><li>Montpellier Badminton (04 67 84 01 19) </li><li>Mosson Full Contact (06 60 05 36 00) </li><li>AS Agropolis Volley (04 67 04 63 86) </li><li>Come on Volley (04 67 66 01 34) </li><li> Montpellier Volley  (04 67 45 77 77) </li></ul><h5><br /> <br />Horaires</h5><ul><li>8h - 18h : collège les Garrigues </li><li>18h - 22h : clubs<br /> </li></ul><h5><br /> <br />Tarifs</h5><ul><li>Sous convention avec le Conseil Général </li><li>Gratuit pour les clubs sportifs<br /> </li></ul>;
557;Postes de Police municipale;Poste de police municipale Hauts de Massane;Mosson;;04 67 75 22 14;;;;;00225700;43.6419376543;3.81791082396;45;;avenue Guilhem de Poitiers;;Hauts de Massane;34080;Montpellier;;;0;;;;;;;;<ul><li>Heures d'ouverture : du lundi au vendredi de 7h à 21h. </li><li>Ce poste couvre les sous-quartiers : <br />- Les Hauts de Massane, <br />- Mosson, <br />- Celleneuve.</li></ul>;
85;Ecoles élémentaires;Ecole élémentaire Docteur Calmette;Hôpitaux - Facultés;;04 67 63 47 25;;;;;947;43.6413822065;3.85664148479;147;;rue des Quatre Seigneurs;;;34090;Montpellier;;;0;;;;;;;;;
1049;Jardins partagés;Parc de la Carriera et Lac des Garrigues;Mosson;Les Hauts de Massane;04 67 40 40 11;;;;;00187500;43.6412625745;3.81721152610;;;Rue Louis Pergaud;;;34080;Montpellier;;;0;;;;;;;;"<p>Renseignements : <a id=""TPL_ANNUAIRE"" title=""Maison pour tous Georges-Brassens"" href=""#"" typelien=""LienTemplate"" ancre=""319"">Maison pour tous Georges-Brassens</a></p>";
360;Résidences-foyers;La Carrièra;Mosson;;04 67 75 25 70;;;;;70018100;43.6412560245;3.81771342051;50;;rue Louis-Pergaud;;;34080;Montpellier;;;0;;;;;;;ligne 15;<p>Située sur les Hauts de Massane, elle peut accueillir 83 résidants dont 50 lits médicalisés.</p><p>Les logements sont de type F1 avec loggia.</p><p>La surveillance paramédicale est effectuée par le personnel de l’établissement 24h sur 24. Chaque résidant peut disposer d’un appel malade portable. </p><p>Le choix d’animation est grand : ergothérapie, atelier mémoire et gymnastique,<br />participation à la vie de l’établissement, comité de lecture avec deux écoles élémentaires du quartier, sorties, bibliothèque et vidéothèque, culte religieux... </p>;
717;Terrains de rugby;Terrain de rugby domaine de Veyrassi;Hôpitaux - Facultés;;;;;;;1539;43.6410288094;3.85274677666;;;Rue des 4 vents;;;34000;Montpellier;;;0;;;;;;;Ligne 22, La Navette;;
657;Parcours sportifs;Parcours sportif du Bois de Montmaur;Hôpitaux - Facultés;;;;;;;753;43.6409268143;3.86723682325;;;Chemin du Réservoir de Montmaur;;;34090;Montpellier;;;0;;;;;;;La Navette;<p>Distance : 1,3 Km <br />Pas d'éclairage sur le parcours <br />Accès libre</p>;
37;Ecoles maternelles;Ecole maternelle Pablo-Picasso;Mosson;;04 67 40 06 97;;;;;1242;43.6409024204;3.81721500782;41;;avenue Guilhem de Poitier;;;34080;Montpellier;;;0;;;;;;;;;
1298;Autres contacts utiles;Université Montpellier I - UFR STAPS;Hôpitaux - Facultés;;04 67 41 57 00;04 67 41 57 08;;www.univ-montp1.fr/l_universite/ufr_et_instituts/ufr_staps;;38954;43.6407563202;3.85395838552;700;;av du Pic Saint-Loup;;;34090;Montpellier;;;0;;;;;;;;<p> </p>;
171;Boulodromes de Pétanque;Boulodrome Les Tritons;Mosson;Les Hauts de Massane;;;;;;776;43.6406880525;3.81293492207;;;Rue de Gênes;;;34080;Montpellier;;;0;;;;;;;;<p> </p>;
147;Marchés de quartiers;Marché du Plan des 4 Seigneurs;Hôpitaux - Facultés;;;;;;;160500;43.6406159079;3.85793079879;;;Place; Jean Baumel;;34000;Montpellier;;;0;;;;;;;ligne 23, La Navette arrêt Plan des 4 Seigneurs;"<ul> <li>Jusqu'&#224; 9 commer&#231;ants selon les jours <br><br></li> <li>Ouverture<br>Mardi, vendredi, samedi de 7h &#224; 13h </li> </ul>";
293;Terrains de foot;Terrain de foot Les Tritons;Mosson;;;;;;;1421;43.6404060951;3.81257620357;;;Allée des Hauts-de-Montpellier;;;34080;Montpellier;;;0;;;;;;;ligne 15;<h5>Horaires</h5><ul><li> Dans la journée : écoles, collèges, lycées</li><li>18h - 22h : clubs</li></ul><h5>Tarifs </h5><ul><li>Gratuit pour les écoles primaires et les clubs sportifs</li><li>Payant pour les collèges, lycées et les universités. </li></ul><p>Dans tous les cas, une demande de créneaux devra être faite auprès du service des Sports. </p>;
120;Ecoles élémentaires;Ecole élémentaire Kurosawa;Mosson;;04 67 75 28 34;;;;;1140;43.6403964902;3.81972307148;400;;rue Pierre Cardenal;;;34080;Montpellier;;;0;;;;;;;;<p> </p>;
1267;Hôpitaux;C.H.U Bellevue;Les Cévennes;;04 67 33 67 33;04 67 33 67 70;webmaster@chu-montpellier.fr;www.chu-montpellier.fr/;;39070;43.6403430949;3.85947650688;1;;place Jean Baumel;;;34295;Montpellier;5;;0;;;;;;; N°6 / ARRET : Plan des 4 Seigneurs;"Centre de soins pour personnes agée Bellevue

Il reçoit, depuis 1973, des personnes âgées nécessitant des soins médicaux. Situé sur une colline de la banlieue nord de Montpellier et sur un terrain de cinq hectares très boisé, il est composé d'une unité de moyen séjour qui accueille des personnes âgées nécessitant une rééducation, une réautonomisation et d'une unité de long séjour pour les personnes âgées ayant perdu leur autonomie et dont l'état de santé nécessite une surveillance médicale constante.";
66;Ecoles maternelles;Ecole maternelle Indira-Gandhi;Mosson;;04 67 75 35 45;;;;;1142;43.6399291351;3.81974628874;380;;rue Pierre-Cardenal;;;34080;Montpellier;;;0;;;;;;;;<p> </p>;
65;Ecoles maternelles;Ecole maternelle Nicolas-Copernic;Mosson;;04 67 75 49 31;;;;;1163;43.6397733543;3.81266401842;;;Rue Pierre-Nicolas;;;34080;Montpellier;;;0;;;;;;;;;
115;Ecoles élémentaires;Ecole élémentaire Marc Bloch;Mosson;;04 67 75 13 87;;;;;1161;43.6397084372;3.81211776189;135;;allée des hauts de Montpellier;;;34080;Montpellier;;;0;;;;;;;;<p> </p>;
1278;Cliniques;Clinique Fontfroide;Mosson;;04 67 61 79 79;04 67 61 78 56;;;Un parking visiteur est  à votre disposition de 8h à 21h.;39076;43.6394236820;3.83112401422;1800;;rue;Saint Priest;Parc Euromédecine;34 097;Montpellier;5;;0;;;;;;Ligne 1/ Station Euromédecine;Ligne 16/ arrêt Euromédecine;"<p>La Clinique Fontfroide est un &#233;tablissement moderne de r&#233;&#233;ducation et r&#233;adaptation fonctionnelles, dot&#233;e d&#8217;un secteur de r&#233;adaptation cardiaque et d'une unit&#233; des &#233;tats v&#233;g&#233;tatifs chroniques.&#160;&#160;</p>";
660;Parcours sportifs;Parcours sportif du Lac des Garrigues;Mosson;;;;;;;741;43.6389917496;3.81583010593;;;Avenue Guilhem-de-Poitiers;;;34080;Montpellier;;;0;;;;;;;;<p>Distance : 3 Km <br />Pas d'éclairage sur la parcours <br />Accès libre</p>;
523;Palais des sports;Palais des sports René-Bougnol;Hôpitaux - Facultés;Vert-Bois;04 67 52 76 14;;;;Abords 600 places;1385;43.6381414444;3.87463299810;1 000;;avenue du Val-de-Monferrand;;;34090;Montpellier;;;0;;;600 places aux abords;;;;ligne 9 arrêt René-Bougnol et Navette Agropolis Lavalette arrêt Zoo;"<p>Le palais des sports René-Bougnol, géré par <a id=""310"" title=""Montpellier Agglomération"" href=""#"" typelien=""LienExterne"">Montpellier Agglomération</a>, a souvent été le théâtre des exploits du ?Montpellier Handball (champions de France et d'Europe). Ses gradins accueillent 2 500 personnes. </p><p>L'équipement comprend également une salle de danse et deux salles de judo animées par 25 ?associations sportives. </p>";
218;Palais des sports;Palais des sports Pierre-de-Coubertin;Mosson;;04 67 03 02 24;;;;Abords 400 places;1388;43.6380808121;3.81415817350;;;Avenue de Naples;;;34000;Montpellier;;;0;;;;;;;Ligne 15;;
118;Ecoles élémentaires;Ecole élémentaire Galilée;Mosson;;04 67 75 34 59;;;;;1169;43.6380102325;3.81973650903;47;; rue Jaufré Rudel;;;34080;Montpellier;;;0;;;;;;;;;
63;Ecoles maternelles;Ecole maternelle Averroès;Mosson;;04 67 75 27 10;;;;;1166;43.6380013025;3.81912427078;47;;rue Jaufré Rudel;;;34080;Montpellier;;;0;;;;;;;;;
179;Boulodromes de Pétanque;Boulodrome Saint-Priest;Hôpitaux - Facultés;;;;;;;1653;43.6379809682;3.83537228849;;;Rue Billie-Holliday;;;34090;Montpellier;;;0;;;;;;;;<p> </p>;
1287;Centres de recherche;Centre national de la recherche scientifique Languedoc-Roussillon (CNRS);Hôpitaux - Facultés;;04 67 61 34 34;04 67 04 32 36;;www.dr13.cnrs.fr;;40026;43.6377536011;3.86458740008;1919;;route de Mende;;;34293;Montpellier;Cedex 5;;0;;;;;;;;<p>Le CNRS est l’un des principaux acteurs de la recherche scientifique en région Languedoc-Roussillon. Il intervient dans tous les champs disciplinaires de la recherche. </p>;
151;Bases nautiques;Base nautique Les Garrigues;Mosson;;04 67 40 55 82;;;;;742;43.6374321284;3.81574133728;;;Avenue Guilhem de Poitiers;;;34000;Montpellier;;;0;;;;;;;ligne 15;<ul><li>Installation sportive municipale </li></ul>;
289;Terrains de foot;Terrain de foot Jeannot Véga;Hôpitaux - Facultés;;;;;;;1431;43.6369921728;3.87440511622;;;rue Antoine Laurens Jussieu;;;34080;Montpellier;;;0;;;;;;;Ligne 9;<h5>Horaires</h5><ul><li>Dans la journée : écoles, collèges, lycées</li><li>18h - 22h : clubs </li></ul><h5>Tarifs </h5><ul><li>Gratuit pour les écoles primaires et les clubs sportifs</li><li>Payant pour les collèges, lycées et les universités. </li></ul><p>Dans tout les cas, une demande de créneaux devra être faite auprés du service des Sports. </p>;
664;Tennis;Tennis Les Garrigues 1 à 5;Mosson;;04 67 75 07 01;;;;;516;43.6369565327;3.81476800076;100;;avenue de Naples;;;34080;Montpellier;;;0;;;;;;;Ligne 15;<ul><li>Horaires et tarifs<br />Se renseigner auprès de la Maison pour tous Georges Brassens.</li></ul>;
1146;Ecoles d'enseignement supérieur;Ecole d'architecture LR;Hôpitaux - Facultés;Plan des Quatre Seigneurs;04 67 91 89 89;04 67 41 35 07;;www.montpellier.archi.fr/;;70012100;43.6365979955;3.85678660887;179;;rue de l'esperou;;;34093;Montpellier;5;;0;;;;;;;Ligne 13 - La Navette Agropolis;<p> </p>;
1297;Autres contacts utiles;Université Montpellier I -  UFR d'Odontologie;Hôpitaux - Facultés;;04 67 10 44 70;04 67 10 45 82;;;;39226;43.6363560095;3.82341408939;545;;Av du Prof J.L. Viala;;;34 193;Montpellier;Cedex 5;;0;;;;;;;;;
33;Ecoles maternelles;Ecole maternelle Teresa;Hôpitaux - Facultés;;04 67 54 65 67;;ce.0341554e@ac-montpellier.fr;;;1301;43.6362565010;3.87411233580;30,;;rue;Antoine-Laurent-de-Jussieu;;34090;Montpellier;;;0;;;;;;;;;
1284;Centres de recherche;Centre informatique national de l'enseignement supérieur (CINES);Hôpitaux - Facultés;;04 67 14 14 14;04 67 52 37 63;svp@cines.fr;www.cines.fr;;40253;43.6361823648;3.84204477831;950;;rue de Saint Priest;;;34097;Montpellier;Cedex 5;;0;;;;;;;;Etablissement public national qui met à la disposition de la communauté scientifique de l’Enseignement Supérieur et de la Recherche publique, des moyens informatiques exceptionnels pour le calcul de haute performance et l’archivage (conservation à long terme) de documents électroniques.;
86;Ecoles élémentaires;Ecole élémentaire Jules Ferry;Hôpitaux - Facultés;;04 67 54 41 71;;;;;1299;43.6361758681;3.87452471554;88;;rue Antoine-Laurent de Jussieu;;;34090;Montpellier;;;0;;;;;;;;<p> </p>;
1291;Centres de recherche;Institut national de la santé et de la recherche médicale (INSERM);Hôpitaux - Facultés;;04 67 63 61 30;04 67 63 70 84;;www.languedoc-roussillon.inserm.fr;;70006700;43.6360972490;3.84574113155;60;;rue de Navacelles;;;34394;Montpellier;Cedex 5;;0;;;;;;;;<p>L'Inserm est le seul organisme public français entièrement dédié à la recherche biologique, médicale et en santé des populations.</p>;
772;Multi-accueils municipaux;Multi accueils Les Copains d'Abord;Mosson;;04 67 40 06 80;;;;;1504;43.6356898713;3.81804483340;1;;Place Jacques Brel;;;34080;Montpellier;;;0;;;;;;;;<p> </p>;
1144;Ecoles d'enseignement supérieur;Conservatoire National des Arts et Metiers (CNAM);Mosson;;04 67 63 40;04 67 54 08 36;cnamlr@cnam.fr;www.cnam.agropolis.fr/;;70012500;43.6353967767;3.84154314073;989;;rue de la croix verte;;Parc Euromédecine;34093;Montpellier;05;;0;;;;;;;Ligne 16- Euromédecine - Tournezy;<p> </p>;
34;Ecoles maternelles;Ecole maternelle Marguerite-Yourcenar;Hôpitaux - Facultés;;04 67 57 06 90;;;;;1622;43.6340346279;3.83158975693;71;;rue Jean Joseph Laborde;;;34000;Montpellier;;;0;;;;;;;;<p> </p>;
337;Collèges;Collège Les Escholiers de la Mosson;Mosson;;04 67 10 47 30;04 67 10 47 36;;;;70011600;43.6333614839;3.82109310282;70;;avenue du Biterrois;;;34184;Montpellier;Cedex 4;;0;;;;;;;;<p> Sans internat - avec demi pension</p>;
546;Bibliothèques et médiathèques;Médiathèque Jean-Jacques Rousseau;Mosson;Les Hauts de Massane;04 67 10 70 20;04 67 10 70 29;;mediatheque.montpellier-agglo.com;;616;43.6333123917;3.81933956735;230;;avenue du Biterrois;;;34080;Montpellier;;;0;;;;;;ligne 1, station Saint-Paul;ligne 15, arrêt Gémeaux;"<p>La médiathèque, gérée par <a id=""310"" title=""Accéder au site de Montpellier Agglomération"" href=""#"" typelien=""LienExterne"">Montpellier Agglomération</a>, propose de nombreux espaces et services dédiés aux enfants. </p></font />";
1362;Parcs et jardins;Domaine d'O;Hôpitaux - Facultés;;0800200165;;;www.domaine-do-34.eu;;39146;43.6329439123;3.83913649513;;;Rond-point;du Château d’O;;34090;Montpellier;;;0;;;;;"Parking
Accessible aux personnes handicapées.

";"Accès
Tramway : ligne 1, arrêt Château d'Ô 
";bus n°7 et n°16 arrêt Château d’O;"<p>Propri&#233;t&#233; du Conseil G&#233;n&#233;ral de l'H&#233;rault, ce parc de 8 hectares date du XIX&#232; si&#232;cle. Une partie du jardin est compos&#233;e &#224; la fran&#231;aise. Il est &#233;galement le th&#233;&#226;tre de nombreuses manifestations culturelles.<br><br>Acc&#232;s au parc, au th&#233;&#226;tre et au ch&#226;teau d'O<br>Rond point du Ch&#226;teau d'O (par l'avenue des Moulins)</p> <p>Acc&#232;s &#224; l'amphith&#233;&#226;tre d'O et aux chapiteaux</p> <p>&#160;</p> <p>Folie d'O<br>Tr&#232;s caract&#233;ristique de ces r&#233;sidences proches des villes o&#249; les privil&#233;gi&#233;s donnaient des f&#234;tes, cette ""folie"" du 18&#232;me si&#232;cle a &#233;t&#233; &#233;difi&#233;e entre 1743 et 1750, par l'architecte Montpelli&#233;rain, Charles Gabriel Le Blanc.</p> <p>L'int&#233;r&#234;t de ce domaine r&#233;side essentiellement dans ses ext&#233;rieurs, avec ses jardins qui abritent des esp&#232;ces v&#233;g&#233;tales m&#233;diterran&#233;ennes et les sculptures qui encadrent le grand bassin.</p> <p>Visites possibles uniquement lors des expositions</p>";"<p>Les horaires d'ouverture du parc sont :</p> <ul> <li>en &#233;t&#233;, du mardi au dimanche de 9h &#224; 19h;</li> <li>en hiver, du mardi au dimanche de 9h &#224; 17h30.</li> </ul>"
1319;Parcs et jardins;Parc du Château d'O;Hôpitaux - Facultés;;;;;;;39146;43.6329439123;3.83913649513;;;Rond-point;Rond-point du Château d'O;;34080;Montpellier;;;0;;;;;;;;"<p>&#160;Propri&#233;t&#233; du Conseil G&#233;n&#233;ral de l'H&#233;rault, ce parc de 8 hectares date du XIX&#232; si&#232;cle. Une partie du jardin est compos&#233;e &#224; la fran&#231;aise. Il est &#233;galement le th&#233;&#226;tre de nombreuses manifestations culturelles.</p>";
194;Gymnases;Gymnase Jean-Bouin;Mosson;;;;;;;1321;43.6328788430;3.82093278016;;;Avenue du Bitterois;;;34080;Montpellier;;;0;;;;;;;;<h5> Clubs sportifs et disciplines<br /> </h5><ul><li>ACEP Omnisports (06 23 81 42 72)</li><li>AS Paillade Volley (04 67 07 96 09)</li><li>Majorettes Impériales Paillade (04 67 75 07 22)</li><li> ISIM Omnisports (04 67 14 30 97) </li><li> Mayouri Omnisports (04 67 52 96 35) </li><li> Montpellier Agglo Futsal </li></ul><h5><br /> <br />Horaires</h5><ul><li>Dans la journée : collèges</li><li> 18h - 22h : clubs </li></ul><p>Dans tous les cas, une demande de créneaux devra être faite auprès du service des Sports.<br /> </p><h5><br /> <br />Tarifs</h5><ul><li>Gratuit pour les clubs sportifs</li><li>Sous convention pour les collèges et les lycées.<br /> </li></ul>;
1235;Universités;Université Montpellier III - Paul Valéry;Hôpitaux - Facultés;Hôpitaux-Facultés;+33 (0)4 67 14 20 00;;; www.univ-montp3.fr/;;70013300;43.6328217915;3.86979818642;;;Route de Mende;;;34199;Montpellier;5;;0;;;;;;;;<p>Arts, lettres, langues, sciences humaines et sociales</p>;
1234;Universités;Université Montpellier II - Sciences et Techniques;Hôpitaux - Facultés;Hôpitaux-Facultés;04 67 14 30 30;04 67 14 30 31;presidence@univ-montp2.fr;;parking difficile;39202;43.6324954277;3.86462739731;;;place Eugène Bataillon;;;34095;Montpellier;;;0;;;;;;"ligne 1 direction Mosson, arrêt universités des sciences et des lettres
";;<p>L'Université Montpellier II, en s'appuyant sur les enseignants-chercheurs et les chercheurs de ses unités de recherche, propose un très large éventail de formations, aux niveaux Licence (L), Master (M) et Doctorat (D) ouvrant vers des métiers liés à : </p><ul><li>à l'application des sciences et technologies en entreprise, </li><li>à la recherche scientifique publique ou privée, </li><li>à l'enseignement. </li></ul><p><br />Pour se rendre à l'Université Montpellier II :<br />à partir de l'autoroute A9:<br />En venant de Lyon, Marseille, prendre la sortie 28 (Vendargues), suivre Millau puis hôpitaux facultés.</p><p>En venant Perpignan, prendre la sortie 31 (Montpellier Ouest), suivre Croix d'argent, la Paillade, les Cévennes, Ganges puis hôpitaux facultés.</p><p><br />à partir de la gare SNCF :<br />ligne 1 du tramway direction Mosson, descente à l'arrêt universités des sciences et des lettres</p><p>Il est vivement conseillé de prendre le tramway ou le bus : parking difficile autour de la fac</p>;
1264;Hôpitaux;C.H.U Arnaud de Villeneuve;Hôpitaux - Facultés;; 04 67 33 67 33;04 67 33 61 25;webmaster@chu-montpellier.fr;www.chu-montpellier.fr;;39078;43.6321932526;3.84955626187;371;;avenue du Doyen Gaston Giraud;;;34295;Montpellier;5;;0;;;;;;Ligne 1 / Arrêt : Lapeyronie;;;
922;Parcs et jardins;Parc Chico Mendès;Mosson;;;;;;;00178900;43.6317140716;3.82314921767;;;Rue de l'Agenais;;;34080;Montpellier;;;0;;;;;;;;<p>Inauguré en 1991, cet espace vert a été créé sur un terrain vierge, aux abords de l’avenue de l’Europe. Ses pentes présentent maintenant des gradins en étages, structurés par des rondins de bois. Des plantations, des placettes de repos et des aire de jeux égaient ces terrasses. Des plantes méditerranéennes : grevillea, plumbago du cap, cistes, myrtes…, composent ce jardin.</p>;
304;Maisons pour tous;Maison de quartier Emma Calvé;Hôpitaux - Facultés;Hôpitaux-Facultés;04 67 04 08 42;04 67 04 08 42;mptdubout@mpt.ville-montpellier.fr;;Stationnement possible à l'intérieur de l'enceinte;1703;43.6306322830;3.85588050986;;;Impasse;des Acacias;;34090;Montpellier;;;0;;;;;;ligne 1 station Lapeyronnie;;"<p><strong>Accueil et renseignements</strong><br>Du lundi au vendredi de 9h &#224; 12h et de 13h30 &#224; 17h45</p>";
1265;Hôpitaux;C.H.U Gui de Chauliac;Hôpitaux - Facultés;; 04 67 33 67 33;04 67 33 76 23;webmaster@chu-montpellier.fr;www.chu-montpellier.fr/;;39080;43.6304741558;3.86229675980;80;;avenue Augustin Fliche;;;34295;Montpellier;5;;0;;;;;;LIGNE N°1 / ARRET : Saint-Eloi ou Universités;;<p> </p>;
1043;Jardin-École;Parc Malbosc;Les Cévennes;;;;;;;641;43.6298498410;3.82800167023;;;Rue Sainte-Barde;;;34080;Montpellier;;;0;;;;;;;;<p>Inscriptions et informations, service des espaces verts : 04 67 20 99 00 </p>;
910;Parcs et jardins;Parc de l'Aiguelongue;Hôpitaux - Facultés;;;;;;;00208300;43.6298284843;3.87386531237;;;Rue Major Flandre;;;34090;Montpellier;;;0;;;;;;;;<p>Acquis par la Ville dans le cadre d'une opération immobilière en 1995, ce parc de 10.000 m² est un espace très prisé des riverains. Il présente une large pinède au-dessous de laquelle se glisse des aires de repos et des jeux pour enfants. Un espace spécial pour les chiens a été aménagé en 2001.</p>;
1236;Hôpitaux;C.H.U Lapeyronie;Hôpitaux - Facultés;Hôpitaux-Facultés;04 67 33 67 33;04 67 33 89 63;hopital@fhf.fr;www.chu-montpellier.fr;;39081;43.6297559341;3.85139790262;371;;avenue du Doyen Gaston Giraud;;;34295;Montpellier;5;;0;;;;;;Ligne 1 - direction Mosson - Arrêt Lapeyronie;;<p>L'Hôpital Lapeyronie a été terminé en 1983.<br />Il comprend plus de 700 lits d'hospitalisation, desservis par un imposant plateau technique comportant :<br />  -  un département d'imagerie médicale ultra moderne (une IRM, deux scanners, 16 salles de radiologie),<br />  -  sept laboratoires d'analyses biologiques,<br />  -  un service central de médecine nucléaire,<br />   - deux blocs opératoires offrant 20 salles d'interventions,<br />   -  un lithotripteur.<br />40.000 personnes y sont hospitalisées chaque année et 120.000 viennent en consultations.</p>;
1237;Hôpitaux;C.H.U Saint Eloi;Hôpitaux - Facultés;Hôpitaux-Facultés;04 67 33 67 33;04 67 33 76 23;fhf@fhf.fr;www.chu-montpellier.fr/fr/presentation_eloi.jsp;;39082;43.6289491484;3.86590248914;80;;avenue Augustin Fliche;;;34295;Montpellier;5;;0;;;;;;LIGNE N°1 : Arrêt : Saint-Eloi ou Universités;;<p> </p>;
168;Boulodromes de Pétanque;Boulodrome Leenhardt;Hôpitaux - Facultés;;;;;;;775;43.6289302056;3.85747372638;;;Allée des Magnolias;;;34090;Montpellier;;;0;;;;;;;;<p> </p>;
758;Crèches municipales;Crèche Louise-Guiraud;Mosson;; 4 67 75 42 50;;;;;845;43.6287696114;3.81699608746;35;;rue de Tipasa;;;34080;Montpellier;;;0;;;;;;;;;
164;Boulodromes de Pétanque;Boulodrome Hortus;Mosson;;;;;;;769;43.6284330410;3.81825355544;;;Rue de Bari;;;34080;Montpellier;;;0;;;;;;;;<p> </p>;
320;Maisons pour tous;Maison pour tous Léo Lagrange;Mosson;Mosson;04 67 40 33 57;04 67 40 13 69;mptlagrange@mpt.ville-montpellier.fr;;Parking tout public;1685;43.6284160621;3.81663097976;155;;avenue ;de Bologne;;34080;Montpellier;;;0;;;;;;ligne 1 station Halles de la Paillade;15 arrêt Halles de la Paillade;"<p><strong>Accueil et renseignements</strong><br>du lundi au vendredi de 9h &#224; 12h30 et de 13h30 &#224; 22h</p>";
456;Grands marchés;Marché de Mosson;Mosson;;04 67 75 76 81;;;;Parking de l'Espace Mosson;00056500;43.6281579978;3.81695229351;;;Avenue ;d'Heidelberg;;34000;Montpellier;;;0;;;;;;ligne 1 station Halles ;"ligne 15 arrêt Barcelone 
";"<ul> <li>160 commer&#231;ants selon les jours </li> </ul> <ul> <li>March&#233; non alimentaire </li> </ul> <ul> <li>Ouverture<br>Du lundi au samedi de 7h &#224; 13h </li> </ul>";
41;Ecoles maternelles;Ecole maternelle Virginia-Woolf;Mosson;;04 67 75 37 34;;;;;929;43.6280222948;3.81907135939;255;;rue de Bari;;;34080;Montpellier;;;0;;;;;;;;;
421;Mairies annexes;Mairie annexe de proximité Mosson;Mosson;La Paillade;04 67 75 19 10;;;;;1719;43.6280216784;3.81636021936;111;;place ;de Tipasa;Mas de la Paillade;34080;Montpellier;;;0;;;;;;L1, station Halles de la Paillade;;"<ul> <li>Heures d&#8217;ouverture : de 8h30 &#224; 17h30</li> <li><a id=""11312"" href=""#"" typelien=""LienDocument"">Modalit&#233; de d&#233;livrance des passeports biom&#233;triques</a></li> </ul>";
67;Ecoles maternelles;Ecole maternelle James-Joyce;Mosson;;04 67 75 34 87;;;;;932;43.6280012451;3.81792596876;122;;rue de Bologne;;;34080;Montpellier;;;0;;;;;;;;;
117;Ecoles élémentaires;Ecole élémentaire André  Boulloche;Mosson;;04 67 75 37 33;;;;;927;43.6278589816;3.81962091482;123;;rue de  Lausanne;;;34080;Montpellier;;;0;;;;;;;;<p> </p>;
143;Halle;Halles des quatre saisons;Mosson;;04 67 75 76 81;;;;Parkings de l'Espace Mosson 75 places;00049100;43.6276148865;3.81717820750;;;Avenue d'Heidelberg;;;34000;Montpellier;;;0;;;;;;ligne 1 station Halles de la Paillade;ligne 15 arrêt Barcelone ;<ul><li>38 commerçants </li><li>Ouverture<br />Tous les jours de 7h à 13h.</li></ul>;
290;Terrains de foot;Terrain de foot Jeu de Mail;Hôpitaux - Facultés;;;;;;;1433;43.6274470669;3.86389930370;;;Rue de la Jalade;;;34090;Montpellier;;;0;;;;;;"ligne 1 station St Éloi 
";La Navette;"<h5>Horaires</h5><ul><li>Dans la journée : écoles, collèges, lycées, universités</li><li>18h - 22h : clubs <br /> </li></ul><h5> <br />Tarifs</h5><ul><li>Gratuit pour les écoles primaires et les clubs sportifs</li><li>Payant pour les collèges, les lycées et les universités. </li></ul><p>Dans tout les cas, une demande de créneaux devra être faite auprès du <a id=""TPL_ANNUAIRE"" title=""Lien vers fiche service des sports"" href=""#"" typelien=""LienTemplate"" ancre=""441"">service des Sports</a>  </p>";
344;Collèges;Collège Jeu de Mail;Hôpitaux - Facultés;;04 67 52 11 50;04 67 52 30 82;;;;39747;43.6274213564;3.86436689444;5;;avenue Bertin-Sans;;;34090;Montpellier;;;0;;;;;;;;<p>Sans internat - avec demi pension</p>;
554;Postes de Police municipale;Poste de police municipale Aiguelongue;Hôpitaux - Facultés;;04 67 41 41 44;;;;;00089600;43.6274081675;3.87599807346;;;rue des Cétoines;;;34000;Montpellier;;;0;;;;;;;;<ul><li>Heures d'ouverture : du lundi au vendredi de 7h à 21h. </li><li>Ce poste couvre les sous-quartiers: <br />- Hôpitaux-Facultés, <br />- Aiguelongue, <br />- Plan des quatre seigneurs</li></ul>;
123;Ecoles élémentaires;Ecole élémentaire Roosevelt;Mosson;;04 67 75 42 88;;;;;1231;43.6273446281;3.81961856741;25;; rue de Lausanne;;;34080;Montpellier;;;0;;;;;;;;<p> </p>;
40;Ecoles maternelles;Ecole maternelle Vincent-Van-Gogh;Mosson;;04 67 75 36 46;;;;;1228;43.6273383699;3.81904976561;242;;rue d'Oxford;;;34080;Montpellier;;;0;;;;;;;;;
1266;Hôpitaux;C.H.U la Colombière;Hôpitaux - Facultés;;04 67 33 67 33;04 67 33 98 88;webmaster@chu-montpellier.fr;www.chu-montpellier.fr/;;39079;43.6272457521;3.85599126165;39;;avenue Charles Flahault;;;34295;Montpellier;5;;0;;;;;;LIGNE N°1 / ARRET : Universités;;;
399;Lycées;Lycée Léonard de Vinci;Mosson;;04 67 10 40 10;04 67 45 65 41;;;;38931;43.6271304407;3.82393076623;;;Rue du Professeur Blayac;;;34085;Montpellier;Cedex 4;;0;;;;;;;;<ul><li>lycée professionnel </li><li>avec internat et demi-pension </li></ul>;
779;Multi-accueils municipaux;Multi accueils Pitchot Nanet;Hôpitaux - Facultés;;04 67 72 41 64;;;;;1348;43.6269251040;3.87908402689;11;;rue des Tourterelles;;;34090;Montpellier;;;0;;;;;;;;<p> </p>;
31;Ecoles maternelles;Ecole maternelle Charlie-Chaplin;Hôpitaux - Facultés;;04 67 63 35 60;;;;;1076;43.6268870356;3.86393264210;120;;rue de la Jalade;;;34090;Montpellier;;;0;;;;;;;;;
430;Clubs de loisirs;Club de loisirs Aiguelongue;Hôpitaux - Facultés;;04 67 54 53 72;;;;;39633;43.6268266289;3.87639287441;158;;Rue Raoul Follereau;Raoul Follereau;Cité de la Justice - Escalier 21;34090;Montpellier;;;0;;;;;;;ligne de bus N° 9 - La Ronde;"<ul> <li><strong>Inscriptions</strong><br>Se renseigner aupr&#232;s du secr&#233;tariat. <br>Service gratuit pour les d&#233;tenteurs de la carte Age d'Or. </li> <li><strong>Ouverture</strong><br>du lundi au vendredi, de 11h &#224; 18h.</li> <li><strong>Les animations</strong><br>Jeux de soci&#233;t&#233;, Images 3 D, patchwork sur cartons , lotos, bals, sorties, f&#234;tes ...</li> </ul>";
88;Ecoles élémentaires;Ecole élémentaire Eugène Pottier;Hôpitaux - Facultés;;04 67 63 35 68;;;;;1070;43.6267366696;3.86440208309;120;;rue de la Jalade;;;34090;Montpellier;;;0;;;;;;;;<p> </p>;
208;Multisports;Terrain multisports Heidelberg;Mosson;;;;;;;1663;43.6267211227;3.81308787439;;;Avenue d'Heidelberg;;;34000;Montpellier;;;0;;;;;;;;<ul><li>Activités proposées<br />Ces équipements de proximité sont accessibles à tout public. <br />Football <br />Handball <br />Volley ball <br />Basket ball<br /> </li><li>Horaires : 8h à 22h</li><li>Tarifs :gratuit</li></ul>;
549;Bibliothèques et médiathèques;Bibliothèque Paul Langevin;Hôpitaux - Facultés;;04 67 72 58 76;04 67 42 46 97;;mediatheque.montpellier-agglo.com/;;00052300;43.6266733882;3.88236497119;1071;;avenue ;de la Justice-de-Castelnau;Maison pour tous Albert-Dubout;34090;Montpellier;;;0;;;;;;"ligne 2, arrêt Aiguelongue 
";ligne 9 et La Ronde, arrêt Montasinos ;"<p>La biblioth&#232;que Paul Langevin, situ&#233;e dans les b&#226;timents de la <a id=""536"" href=""#"" title=""Acc&#233;der &#224; la page maison pour tous Albert-Dubout"" typelien=""LienInterne"">maison pour tous Albert-Dubout</a>, est g&#233;r&#233;e par <a id=""310"" href=""#"" title=""Acc&#233;der au site de Montpellier Agglom&#233;ration"" typelien=""LienExterne"">Montpellier Agglom&#233;ration</a>.&#160;</p> <p>&#160;</p>";
1110;Boulodromes de Pétanque;Boulodrome Mas de Neuville;Les Cévennes;;;;;;;1581;43.6265942098;3.84091733074;;;Avenue du Château d'O;;;34000;Montpellier;;;0;;;;;;;;<p> </p>;
87;Ecoles élémentaires;Ecole élémentaire Sigmund Freud;Hôpitaux - Facultés;;04 67 72 42 53;;;;;872;43.6264928760;3.88020353718;2;;rue des Tourterelles;;;34090;Montpellier;;;0;;;;;;;;"<blockquote dir=""ltr"" style=""MARGIN-RIGHT: 0px""><p> </p></blockquote>";
427;Mairies annexes;Mairie annexe Aiguelongue;Hôpitaux - Facultés;;04 67 72 63 27;;;;;00052201;43.6263799645;3.88275630746;1071;;avenue;de la Justice de Castelnau;Maison pour tous Albert-Dubout;34090;Montpellier;;;0;;;;;;Ligne 2, station Mas Drevon;La Ronde ou ligne 9 arrêt Montasinos;"<ul> <li>Horaires d'ouverture : de 8h45 &#224; 12h15 et de 13h00 &#224; 16h30</li> <li><a id=""11312"" href=""#"" typelien=""LienDocument"">Modalit&#233; de d&#233;livrance des passeports biom&#233;triques</a></li> <li>Situ&#233;e dans les locaux de la Maison pour tous <a id=""1024"" href=""#"" typelien=""LienInterne"">Albert-Dubout</a></li> </ul>";
303;Maisons pour tous;Maison pour tous Albert Dubout;Hôpitaux - Facultés;Aiguelongue;04 67 02 68 58;04 67 79 81 54;mptdubout@mpt.ville-montpellier.fr;;;1359;43.6263469418;3.88253701780;1071;;avenue ;de la Justice de Castelnau;;34090;Montpellier;;;0;;;;;;ligne 2 station Aiguelongue;La Ronde ou 5 arrêt Aiguelongue;"<p><strong>Accueil et renseignements</strong><br>Du lundi au vendredi de 9h &#224; 18h30</p>";
89;Ecoles élémentaires;Ecole élémentaire Jean Sibelius;Hôpitaux - Facultés;;04 67 63 51 39;;;;;1073;43.6262672353;3.86449776385;120;;rue de la Jalade;;;34090;Montpellier;;;0;;;;;;;;<p> </p>;
713;Skate board;Piste de skate board Blayac;Mosson;;;;;;;1593;43.6260590226;3.82473177688;;;Avenue du Professeur Blayac;;;34080;Montpellier;;;0;;;;;;;Ligne 6;<p>Cette activité est ouverte aux clubs et au public </p><p>Pour en savoir plus : Annuaire des associations  </p><ul><li> Horaires : 8h à 22h<br />Pas d'autorisation nécessaire<br />  </li><li>Sécurité<br />Se conformer au réglement intérieur affiché sur le site<br /> <br /> </li><li>Tarifs : gratuit</li></ul>;
30;Ecoles maternelles;Ecole maternelle Luis-de-Camoens;Hôpitaux - Facultés;;04 67 72 42 54;;;;;868;43.6260589267;3.87988666568;2;;rue des Tourterelles;;;34090;Montpellier;;;0;;;;;;;;;
440;Collèges;Collège d'Alco;Mosson;Mosson;04 99 77 21 21;;;;;40658;43.6254860169;3.83396247612;200;;rue de Malbosc;;;34090;Montpellier;;;0;;;;;;;;<p> </p>;
121;Ecoles élémentaires;Ecole élémentaire Louisville;Mosson;;04 67 75 36 01;;;;;1192;43.6251180550;3.81534343397;431;;avenue de Louisville;;;34080;Montpellier;;;0;;;;;;;;<p> </p>;
119;Ecoles élémentaires;Ecole élémentaire Heidelberg;Mosson;;04 67 75 42 07;;;;;1031;43.6251026850;3.81375906111;310;;rue de Liège;;;34080;Montpellier;;;0;;;;;;;;<p> </p>;
759;Crèches municipales;Crèche Petit Prince de Boutonnet;Montpellier Centre;;04 67 72 13 12;;;;;1497;43.6250945684;3.87609169747;20;;rue Emile Littré;;;34090;Montpellier;;;0;;;;;;;;;
64;Ecoles maternelles;Ecole maternelle Miguel-de-Cervantès;Mosson;;04 67 75 42 11;;;;;1029;43.6250592435;3.81432961986;91;;rue Charles-Bonaparte;;;34080;Montpellier;;;0;;;;;;;;;
68;Ecoles maternelles;Ecole maternelle Martin-Luther-King;Mosson;;04 67 75 35 25;;;;;1189;43.6248740621;3.81472317314;65;;rue Charles-Bonaparte;;;34080;Montpellier;;;0;;;;;;;;;
176;Boulodromes de Pétanque;Boulodrome René-Bessières;Mosson;;;;;;;767;43.6245813375;3.81541379201;;;Avenue de Louisville;;;34080;Montpellier;;;0;;;;;;;;;
398;Lycées;Lycée Jean Monnet;Mosson;;04 67 10 36 00;04 67 10 36 06;;www.lyc-monnet-montpellier.ac-montpellier.fr;;39237;43.6243968028;3.83190586339;;;Rue de Malbosc;;;34088;Montpellier;Cedex 4;;0;;;;;;;;<ul><li>lycée général et technologique </li><li>avec internat et demi-pension </li></ul>;
423;Mairies annexes;Mairie annexe Les Cévennes;Les Cévennes;;04 67 60 23 76;;;;;1794;43.6243833777;3.84256419509;1247;;avenue ;Professeur Louis-Ravaz;Maison pour tous Paul-Emile-Victor;34080;Montpellier;;;0;;;;;;ligne 1 arrêt Château d'Ô;ligne 16 arrêt Sainte Genviève;"<ul> <li>&#160;Horaires : de 8h45 &#224; 12h15 et de 13h &#224; 16h30</li> <li><a id=""11312"" href=""#"" typelien=""LienDocument"">Modalit&#233; de d&#233;livrance des Passeports biom&#233;triques</a></li> <li>Situ&#233;e dans les locaux de la <a id=""521"" href=""#"" title=""Lien vers la Maison pour tous Paul-Emile Victor"" typelien=""LienInterne"">Maison pour tous Paul-Emile-Victor</a></li> </ul>";
946;Parcs et jardins;Parc du Mas Vanneau;Les Cévennes;;;;;;;00140400;43.6241473537;3.84259630533;;;Avenue du professeur Louis Ravas;;;34070;Montpellier;;;0;;;;;;;;<p>Ce joli petit square ancien de 1.000 m², planté de beaux arbres, accompagne depuis son ouverture au public en 1996 la Maison pour Tous aménagée dans le mas.</p>;
308;Maisons pour tous;Maison pour tous Paul-Emile Victor;Les Cévennes;Alco;04 99 58 13 58;04 99 58 13 60;mpt.p.e.victor@wanadoo.fr;;;1700;43.6240649143;3.84289303227;1247;;avenue ;du Professeur Louis Ravaz;;34080;Montpellier;;;0;;;;;;ligne 1 station Château d'Ô;16 arrêt Sainte Geneviève / 7 arrêt Hôtel du Département;"<p><strong>Accueil et renseignements</strong><br>du lundi au jeudi de 9h &#224; 12h30 et de 14h &#224; 19h<br>Fermeture le vendredi &#224; 18h</p>";
291;Terrains de foot;Terrain de foot La Mosson;Mosson;;;;;;;822;43.6238832334;3.80933453595;;;Avenue de Heidelberg;;;34000;Montpellier;;;0;;;;;;ligne 1 station Mosson;lignes 14, 25;<h5>Équipements</h5><ul><li>Terrains 1, 2, 3, stabilisés</li><li>Terrain 4, pelousé (réservé exclusivement pour les matchs)</li></ul><h5> Horaires</h5><ul><li> Dans la journée : écoles, collèges, lycées</li><li>18h - 22h : les clubs </li></ul><h5>Tarifs</h5><ul><li>Gratuit pour les écoles primaires et les clubs sportifs</li><li>Payant pour les collèges, lycées et les universités. </li></ul><p>Dans tous les cas, une demande de créneaux devra être faite auprès du service des Sports. </p><p>Pour en savoir plus : Le service municipal des Sports </p>;
114;Ecoles élémentaires;Ecole élémentaire Antoine Balard;Mosson;;04 67 75 43 01;;;;;1284;43.6238178889;3.81839247129;123;; rue de Salamanque;;;34080;Montpellier;;;0;;;;;;;;<p> </p>;
39;Ecoles maternelles;Ecole maternelle Madeleine-Renaud;Mosson;;04 67 75 43 00;;;;;1282;43.6237745438;3.81779523266;360;;avenue de Barcelone;;;34080;Montpellier;;;0;;;;;;;;;
116;Ecoles élémentaires;Ecole élémentaire Simon Bolivar;Mosson;;04 67 75 34 69;;;;;912;43.6234301280;3.81775238669;300;;avenue de Barcelone;;;34080;Montpellier;;;0;;;;;;;;<p> </p>;
35;Ecoles maternelles;Ecole maternelle Pablo-Neruda;Mosson;;04 67 75 42 26;;;;;909;43.6233840255;3.81838762608;53;;rue de Salamanque;;;34080;Montpellier;;;0;;;;;;;;;
747;Salles de sports;Salle de sports Lou Clapas;Mosson;;;;;;;1538;43.6232764605;3.81168970705;;;Avenue de Heidelberg;de Heidelberg;;34080;Montpellier;;;0;;;;;;"Ligne 1 - Station ""Mosson";"Ligne 14, 25
";"<ul> <li>Transfert &#224; la Communaut&#233; d'agglom&#233;ration</li> </ul> <p>&#192; compter du 1er janvier 2003, la salle de sports Lou Clapas est transf&#233;r&#233;e &#224; la communaut&#233; d'agglom&#233;ration de Montpellier pour lui permettre d'exercer ses comp&#233;tences en mati&#232;re sportive (cr&#233;ation et gestion d'&#233;quipements sportifs, animations sportives). Le fonctionnement de cet &#233;quipement reste inchang&#233; pour les usagers.<br><br>Pour en savoir plus : Communaut&#233; d'Agglom&#233;ration de Montpellier</p>";
46;Ecoles maternelles;Ecole maternelle Victor-Duruy;Les Cévennes;;04 67 63 73 90;;;;;881;43.6231122653;3.84041122136;20;;rue Edmond Lautard;;;34080;Montpellier;;;0;;;;;;;;;
1277;Commerce artisanat;Capreb Hérault;Montpellier Centre;;04 99 77 22 80;04 99 77 22 89;accueil@capeb-herault.fr;www.capeb-herault.fr;;70002400;43.6230826103;3.88951661289;44;;avenue Saint Lazare;;;34965;MONTPELLIER;Cedex 2;;0;;;;;;;;<p>La CAPEB (Confédération de l’Artisanat et des Petites Entreprises du Bâtiment) est le syndicat patronal de l’artisanat du bâtiment.</p><p>Horaires d'ouverture : <br />Tous les jours : de 8h30 à 12h30 et de 14h00 à 17h30 <br />Le vendredi : de 8h30 à 12h30 et de 14h à 16h40</p>;
1274;Commerce artisanat;Chambre de métiers et de l'artisanat de l'Hérault;Montpellier Centre;;04 67 72 72 00;04 67 72 72 23;chambredemetiers@cm-herault.fr;www.cma-herault.fr/Accueil/;;70002400;43.6230826103;3.88951661289;44;;Avenue Saint-Lazare;;;34965;Montpellier;Cedex 2;;0;;;;;;;;<p> </p>;
387;Département;Hôtel du département;Les Cévennes;Alco;04 67 67 67 67;;herault@cg34.fr;www.cg34.fr;;39050;43.6229807019;3.83824187834;1 000;;rue d'Alco;;;34087;Montpellier;Cedex 4;;0;;;;;;;;;
92;Ecoles élémentaires;Ecole élémentaire Emile Combes;Les Cévennes;;04 67 63 28 45;;;;;883;43.6229607040;3.84066829995;20;;rue Edmond Lautard;;;34081;Montpellier;;;0;;;;;;;;<p> </p>;
309;Maisons pour tous;Maison de quartier Jean-Pierre Chabrol;Les Cévennes;Alco;04 67 57 56 67;04 99 58 13 60;mpt.p.e.victor@wanadoo.fr;;;635;43.6227032854;3.84547728615;921;;avenue ;du Professeur Louis Ravaz;;34080;Montpellier;;;0;;;;;;;16 arrêt Cévennes;"<p><strong>Accueil et renseignements</strong><br>du lundi au vendredi de 9h &#224; 12h et de 14h &#224; 18h (sauf mardi matin)</p>";
1296;Autres contacts utiles;Université Montpellier I - UFR de Pharmacie;Montpellier Centre;;04 67 54 80 00;04 67 54 80 00;;www.univ-montp1.fr/l_universite/ufr_et_instituts/ufr_pharmacie;;39174;43.6224837028;3.86199696507;15;;avenue Charles Flahault;;BP 14491;34093;Montpellier;Cedex 5;;0;;;;;;;;<p> </p>;
32;Ecoles maternelles;Ecole maternelle Pauline-Kergomard;Montpellier Centre;;04 67 63 33 71;;;;;890;43.6224747489;3.87089082009;5;;rue Colonel Marchand;;;34000;Montpellier;;;0;;;;;;;;<p> </p>;
306;Maisons pour tous;Maison pour tous Fanfonne Guillierme;Les Cévennes;Alco;04 67 04 23 10;04 67 04 03 10;mptguillierme@mpt.ville-montpellier.fr;;1 place réservée;1688;43.6224312070;3.84166316561;;;Rue;des Avant-Monts;;34080;Montpellier;;;0;;;;;;;16 arrêts Sainte Geneviève ou Cévennes;"<p><strong>Accueil et renseignements</strong><br>du lundi au vendredi de 9h &#224; 12h et de 14h &#224; 19h</p>";
105;Ecoles élémentaires;Ecole élémentaire Charles Daviler;Montpellier Centre;;04 67 63 52 50;;;;;892;43.6223334729;3.87046739550;5;; rue Colonel Marchand;;;34000;Montpellier;;;0;;;;;;;;<p> </p>;
263;Salles de sports;Salle de sports Isadora Duncan;Les Cévennes;;04 67 64 79 24;;;;;1320;43.6223023910;3.84197865038;;;Rue des Avants Monts;;;34080;Montpellier;;;0;;;;;;;ligne 16;<h5>Clubs sportifs et disciplines<br /> </h5><ul><li> FFEPGV Les Cévennes Gymnastique loisir (04 67 63 43 74) </li><li>Montpellier GRS Rythmique et Sportive (04 67 63 04 26)</li><li>AS Montpellier Full Contact (06 25 70 65 31)</li><li>Harmonie de Soi Sports de Combat (04 67 68 15 14) </li></ul><h5><br /> <br />Horaires</h5><ul><li>Dans la journée : écoles primaires</li><li>18h - 22h : Clubs </li></ul><p>Une demande de créneaux devra être faite auprès du service des Sports.<br /> </p><h5>Tarifs </h5><ul><li>Gratuit pour les écoles primaires et les clubs sportifs.</li></ul>;
292;Terrains de foot;Terrain de foot Le Mail des Abbés;Montpellier Centre;;;;;;;1436;43.6221472372;3.88560142166;;;Rue du Mail des Abbés;;;34000;Montpellier;;;0;;;;;;;;;
524;Stades;"Stade de la Mosson ""Mondial 98""";Mosson;;04 67 75 74 16;;;;2450 places;827;43.6219415356;3.81188373492;;;Avenue de Heidelberg;;;34080;Montpellier;;;0;;;;;;ligne 1 station Mosson;ligne 15 arrêt Mosson;"<p>Le stade, </font />géré par <a id=""310"" title=""Lien vers Montpellier Agglomération"" href=""#"" typelien=""LienExterne"">Montpellier Agglomération</a>, peut accueillir 35 500 spectateurs. </p>";
757;Crèches municipales;Crèche Galinéta;Les Cévennes;;04 67 54 56 20;;;;;841;43.6218997337;3.84233394366;31;;rue des Avants-Monts;;;34080;Montpellier;;;0;;;;;;;;;
880;Parcs et jardins;Parc Edith Piaf;Montpellier Centre;;;;;;;00159100;43.6218740111;3.88836293601;;;Avenue St-Lazare;;;34000;Montpellier;;;0;;;;;;;;<p>Cette propriété ancienne, boisée de chênes verts et de grands pins, semée de bosquets et de clairières destinées aux jeux, n’a rien perdu de son charme mystérieux. Ouverte au public depuis 1989, elle abrite également la crèche des Boutons d’or.</p>;
1174;Clubs de loisirs;Club de loisirs de La Treille;Montpellier Centre;;04 67 55 12 17;;;;;2157;43.6213112135;3.87300396920;8;;rue;Abbé de l'épée;;34000;Montpellier;;;0;;;;;;ligne 1 - arrêt Albert 1er puis 9 mm à pied;;"<ul> <li><strong>Inscriptions</strong><br>Se renseigner aupr&#232;s du secr&#233;tariat. <br>Service gratuit pour les d&#233;tenteurs de la carte Age d'Or. </li> </ul> <ul> <li><strong>Horaires d'ouverture</strong><br>Ouvert du lundi au vendredi, de 11h00 &#224; 18h00 </li> </ul> <ul> <li><strong>Les animations</strong><br>jeux de soci&#233;t&#233;, lotos, espagnol, sorties, bridge, esth&#233;tique&#160;&#8230;&#160;</li> </ul> <ul> <li><strong>Centre de Ressources Informatiques</strong></li> </ul> <p>Stages de photo num&#233;riques ainsi que l'Initiation, perfectionnement &#224; l'outil informatique (windows, word...)&#160;et &#224; la d&#233;couverte d'internet et de la messagerie instantann&#233;e (MSN).<br>Animateur :&#160;Philippe PELERIN&#160;</p> <p>* Horaires : <br>- 14h00 &#224; 16h00&#160; tous les jours</p> <p>* Inscription aux cours : <br>- dans le club au 04 67 55 12 17</p> <p>* Tarifs</p> <p>- Module&#160;de 8 heures (sur 2 semaines, 4 fois 2h) : 40&#8364;</p> <p>&#160;</p>";
350;Résidences-foyers;Françoise Gauffier;Croix d'Argent;;04 99 54 96 70;;;;;39084;43.6212512563;3.86527122736;13;;rue;André Puig-Aubert;;34000;Montpellier;;;0;;;;;;;;;
666;Tennis;Tennis Paillade de 1 à 7;Mosson;;04 67 03 08 09;;;;;1412;43.6211225159;3.81394157070;;;Avenue de Heidelberg;;;34080;Montpellier;;;0;;;;;;"Ligne 1 : Station "" Mosson""";"Lignes 14,24,15
";"<ul><li>Horaires<br />8h00 - 22h00<br /> </li><li>Tarifs<br />Se renseigner auprès des clubs.</li></ul><p>Pour en savoir plus : <a id=""262"" href=""#"" typelien=""LienInterne"">Annuaire des associations  </a></p>";
902;Parcs et jardins;Parc des Pastourelles;Port Marianne;;;;;;;00159900;43.6210569665;3.89950687259;;;Rue ;Jules Isaac;;34000;Montpellier;;;0;;;;;;;;"<p>Peupliers, ch&#234;nes verts et pins parasols majestueux conf&#232;rent une ambiance tr&#232;s particuli&#232;re &#224; ce jardin &#171; double &#187; dont les deux niveaux sont s&#233;par&#233;s par une falaise de gr&#232;s. A l&#8217;&#233;tage inf&#233;rieur, des agr&#232;s en bois destin&#233;s aux sportifs en herbe voisinent avec une accueillante aire de repos. Au sommet, une terrasse panoramique a &#233;t&#233; am&#233;nag&#233;e, ainsi que des jeux &#224; ressorts pour les tout-petits.<br>&#160;</p>";
1149;Ecoles d'enseignement supérieur;Ecole Nationale Supérieure de Chimie (ENSCM);Montpellier Centre;Boutonnet;04 67 14 43 00;04 67 14 43 53;;www.enscm.fr/;;70012000;43.6209974157;3.86807161866;8;;Rue de l'Ecole Normale;;;34296;Montpellier;;;0;;;;;;Ligne 1 - arret Stade Philippidès;;<p> </p>;
15;Gymnases;Gymnase Bernard-Jouanique;Les Cévennes;;04 67 54 63 99;;;;;1319;43.6209756200;3.84697268194;;;Rue ;Jacques-Dalcroze;;34080;Montpellier;1319;;0;;;;;;;ligne 16 ;"<p><strong>Les clubs et disciplines </strong></p> <ul> <li>Montpellier (Basket) Club Basket, &#160;04 67 59 91 34</li> <li>Montpellier GRS (Gymnastique Rythmique et Sportive), &#160;04 67 63 04 26 </li> <li>MUC Basket (Basket), &#160;04 99 58 35 35 </li> <li>ASPTT Basket (Basket), &#160;04 99 52 60 70 </li> </ul> <p><strong>Horaires</strong><br>Dans la journ&#233;e : &#233;coles, coll&#232;ges <br>18h - 22h : clubs <br>Dans tous les cas, une demande de cr&#233;neaux devra &#234;tre faite aupr&#232;s du service des Sports.<br>&#160;</p> <p><strong>Tarifs</strong><br>Gratuit pour les &#233;coles primaires et clubs sportifs. <br>Sous convention pour les coll&#232;ges et les lyc&#233;es.</p> <p>&#160;</p> <p><strong><img src=""/uploads/Image/9c/IMF_PORTRAITFORMAT2_WEB_CHEMIN_10906_1285681757.jpg"" alt="""" align=""left"" idtf=""10906"" format=""IMF_PORTRAITFORMAT2"" popup=""1"">MUC LUTTE MONTPELLIER</strong><br>Horaires d'entra&#238;nement et Lieu :<br>Gymnase Jouanique - Rue Jacques Dalcroze - quartier des Cevennes - Montpellier</p> <p>Mardi 17h30 - 18h30 -&gt; cours enfants de 04 &#224; 12ans Lutte Olympique / Lutte f&#233;minine<br>Mardi 18h30-20h -&gt; cours ados - adulte Lutte Olympique/ Lutte f&#233;minine<br>Mercredi 15h-17h -&gt; cours enfants de 04 &#224; 12 ansLutte Olympique / Lutte f&#233;minine<br>jeudi 18h-20h -&gt; cours ados adulte Lutte Olympique/ Lutte f&#233;minine<br>Samedi 10h-12h-&gt; cours enfants de 04 &#224; 12 ans Lutte Olympique/ Lutte f&#233;minine<br>Samedi 14h-17h-&gt; cours adulte Lutte Olympique/ Lutte f&#233;minine<br><strong>Tarif:</strong><br>2 s&#233;ances de d&#233;couverte gratuites<br><br>90&#8364; l'ann&#233;e (short et t-shirt FFL fournis, chaussures de lutte obligatoires &#224; acheter d&#232;s l'inscription)<br><strong></strong></p> <p><strong>Renseignements</strong> <br>Contact lutte :<br>Pr&#233;sident du Muc Lutte: Polyn C&#233;dric - 13003@fflutte.org - 06 20 53 36 81<br>Coordinateur de D&#233;veloppement Local Muc Lutte Montellier : Tieche Edisson: edisson.tieche@ahoo.fr / 06 13 16 69 21</p> <p><br>Liens : <a id=""10904"" href=""#"" typelien=""LienExterne"">http://www.montpellier-uc.org/lutte/infos.htm<br></a>http://www.fflutte.com/</p> <p>&#160;</p>";
773;Multi-accueils municipaux;Multi accueils Les Coquelicots;Montpellier Centre;;04 67 72 09 91;;;;;1354;43.6208762636;3.88761129380;151bis;;Rue Pablo Cazals;;;34000;Montpellier;;;0;;;;;;;;<p> </p>;
533;Piscines;Piscine Jean-Taris;Port Marianne;La Pompignane;04 67 79 03 11;;;;;1391;43.6208517423;3.90127761747;67;;rue Louise-Michel;;;34000;Montpellier;;;0;;;;;;;ligne 9 arrêt André-Malraux  ;"<p><img alt=""Photo de la piscine Jean Taris"" src=""/uploads/WEB_CHEMIN_930_1128953864.gif"" align=""left"" idtf=""930"" /></p><p>Piscine de type «tournesol», gérée par <a id=""310"" title=""Montpellier Agglomération"" href=""#"" typelien=""LienExterne"">Montpellier Agglomération</a>.</p>";
204;Multisports;Terrain multisports Bernard Jouanique;Les Cévennes;;;;;;;1664;43.6208034162;3.84718715289;;;Rue Calvin;;;34000;Montpellier;;;0;;;;;;;;<ul><li>Activités proposées<br />Ces équipements de proximité sont accessibles à tout public. <br />Football <br />Handball <br />Volley ball <br />Basket ball<br /> </li><li>Horaires : 8h à 22h</li><li>Tarifs :gratuit</li></ul>;
529;Piscines;Centre Nautique Neptune;Mosson;;04 67 75 34 93;;;;;1467;43.6203171878;3.81475190189;;;Avenue de Heidelberg;;;34080;Montpellier;;;0;;;;;;Ligne 1 station Mosson;Lignes 15, 14, 25;"<p><img alt="" "" src=""/uploads/WEB_CHEMIN_905_1128605542.jpg"" align=""left"" idtf=""905"" /></p><ul><li>Equipement géré par <a id=""310"" title=""Lien vers Montpellier Agglomération"" href=""#"" typelien=""LienExterne"">Montpellier Agglomération</a></li><li><strong>Horaires et tarifs</strong> <br />sur le <a id=""310"" title=""Lien vers Montpellier Agglomération"" href=""#"" typelien=""LienExterne"">site internet de Montpellier Agglomération</a></li></ul>";
177;Boulodromes de Pétanque;Boulodrome Reyne;Mosson;;;;;;;783;43.6201653559;3.81621926300;;;Place Robert-Shumann;;;34000;Montpellier;;;0;;;;;;;;;
1141;Ecoles d'enseignement supérieur;IUFM de l'Académie de Montpellier;Montpellier Centre;Boutonnet;04 67 61 83 41;04 67 61 83 67;infocom@montpellier.iufm.fr;www.montpellier.iufm.fr/;;38927;43.6199950305;3.86763237344;2;;place Marcel Godechot;;BP 4152;34092;Montpellier;CEDEX 5;;0;;;;;;ligne 1 - arrêt Stade Philippidès;;<p> Institut universitaire de formation des maîtres</p>;
1145;Ecoles d'enseignement supérieur;Centre régional d'éducation physique et sportive (CREPS);Montpellier Centre;Boutonnet;04 67 61 05 22;04 67 52 37 51;cr034@jeunesse-sports.gouv.fr;www.creps-montpellier.org/;;70000500;43.6197980690;3.86621617841;2;;Avenue Charles Flahault;;;34090;Montpellier;;;0;;;;;;Ligne 1- arret: Stade Philippidès;;<p> </p>;
43;Ecoles maternelles;Ecole maternelle Madeleine-Bres;Les Cévennes;;04 67 63 01 19;;;;;1125;43.6197254595;3.84183653872;183;;allée de l'Aqueduc;;;34080;Montpellier;;;0;;;;;;;;;
298;Terrains de foot;Terrain de foot Pompignane le Lez;Port Marianne;La Pompignane;;;;;;1441;43.6196146470;3.89955246055;;;Avenue Alphonse-Juin;;;34000;Montpellier;;;0;;;;;;;;;
94;Ecoles élémentaires;Ecole élémentaire Julie Daubie;Les Cévennes;;04 67 63 01 26;;;;;1127;43.6195415429;3.84232470988;183;;allée de l'Aqueduc;;;34080;Montpellier;;;0;;;;;;;;<p> </p>;
322;Maisons pour tous;Maison de quartier Pierre Azéma;Port Marianne;La Pompignane;04 67 02 48 52;04 67 02 12 89;mpt.azema@wanadoo.fr;;;1697;43.6192482846;3.90030697259;35;;rue ;André Malraux;;34000;Montpellier;;;0;;;;;;;9 arrêt André Malraux / La Ronde arrêt Sémard;"<p><strong>Accueil et renseignements</strong><br>du lundi au&#160;jeudi de 9h &#224; 12h et de 14h &#224; 19h <br>vendredi de 9h &#224; 12h et de 14h &#224; 18h</p>";
1148;Ecoles d'enseignement supérieur;Ecole Nationale Superieure d'Agronomie  (ENSAM);Montpellier Centre;Les Arceaux;04 99 61 22 00;04 99 61 29 00;;www.agro-montpellier.fr/;;39049;43.6191692213;3.85405052757;2;;place Pierre Viala;;;34060;Montpellier;1;;0;;;;;;;"Ligne 16 - Euromédecine - Tournezy
Arret. PIERRE VIALA ";<p> </p>;
1279;Cliniques;Clinique Saint Jean;Montpellier Centre;;08 26 30 20 66;04 67 61 20 01;sylvie.pennequin@polyclinique-stjean.com;www.medi-partenaires.fr/groupe/clinique_saint_jean/;;39091;43.6191128037;3.87162558494;36;;avenue;Bouisson-Bertrand;;34093;Montpellier;5;;0;;;;;;station Albert 1er ou station Stade Philippidès Ligne 1;;"<p>M&#233;decine, chirurgie, radiologie</p>";"<p>En voiture :<br>Depuis l'Autoroute A9, sortie Montpellier Est, suivre l'indication Centre Historique puis Ganges.</p> <p>Un parking est &#224; votre disposition dans l'enceinte de la Polyclinique, il est possible de se garer dans les rues proches de la Polyclinique. L&#8217;acc&#232;s des personnes handicap&#233;s se fait &#224; c&#244;t&#233; des urgences o&#249; la Polyclinique dispose d&#8217;un ascenseur adapt&#233;.</p>"
110;Ecoles élémentaires;Ecole élémentaire Jean Moulin;Montpellier Centre;;04 67 72 68 17;;;;;1062;43.6190012723;3.89115955325;20;;boulevard Mounié;;;34000;Montpellier;;;0;;;;;;;;<p> </p>;
72;Ecoles maternelles;Ecole maternelle Sergueï-Prokofiev;Port Marianne;;04 67 02 66 35;;;;;1120;43.6189952198;3.89831162976;85;;avenue Alphonse-Juin;;;34000;Montpellier;;;0;;;;;;;;;
297;Terrains de foot;Terrain de foot Père Prévost;Montpellier Centre;Les Beaux-Arts;;;;;;1460;43.6189108275;3.88526360161;;;Rue Beauséjour;;;34000;Montpellier;;;0;;;;;;;lignes 4 et 9;<p><strong>Équipement</strong></p><ul><li>1 Terrain de foot stabilisé. </li></ul><p><br /><strong>Horaires</strong></p><ul><li>dans la journée : collèges </li><li>18h - 22h : clubs </li></ul><p><br /> <br /><strong>Tarifs</strong></p><ul><li>Gratuit pour les collèges et les clubs sportifs. </li></ul><p><br />Dans tous les cas, une demande de créneaux devra être faite auprès du service des Sports. </p>;
317;Maisons pour tous;Maison pour tous George Sand;Montpellier Centre;Les Aubes;04 67 79 22 18;04 67 79 71 64;mpt.sand@wanadoo.fr;;;1701;43.6188500475;3.89401291396;25;Bis;avenue ;Saint André de Novigens;;34000;Montpellier;;;0;;;;;;ligne 2 station Les Aubes / Correspondance tramway ligne 1 station Léon Blum;14 arrêts Rimbaud ou Palombes;"<p><strong>Accueil et renseignements</strong><br>du lundi au vendredi de 9h &#224; 12h et de 14h &#224; 19h</p>";
347;Résidences-foyers;Les Aubes;Port Marianne;;;;;;;70017300;43.6188312068;3.89491839707;119;;avenue Saint-André-de-Novigens;;;34000;Montpellier;;;0;;;;;;;lignes 8 et 9;<p>Elle est située au sein d’un parc arboré de deux hectares, à cinq minutes du centre-ville, dans un quartier très bien desservi (bus, équipements de loisirs, espaces verts, commerces).</p><p>C’est un établissement de 96 places dont 39 lits médicalisés. Il est agréé au titre de l’aide sociale et de l’aide personnalisée au logement (APL). </p><p>Les logements sont de type individuel ou F2.</p><p>Un animateur de loisirs propose aux résidants un ensemble varié d’activités. </p>;
128;Ecoles élémentaires;Ecole élémentaire Jean Zay;Port Marianne;;04 67 02 66 36;;;;;1122;43.6187910483;3.89783876924;85;;avenue Alphonse Juin;;;34000;Montpellier;;;0;;;;;;;;;
449;Clubs de loisirs;Club de loisirs Les Aubes;Montpellier Centre;;04 67 72 98 83;;;;;70025600;43.6187555398;3.89518362905;;;Avenue St André de Novigens;;;34054;Montpellier;;;0;;;;;;;lignes 5 et 6;<ul><li><strong>Inscriptions</strong><br />Se renseigner auprès du secrétariat. <br />Service gratuit pour les détenteurs de la carte Age d'Or. </li></ul><ul><li><strong>Horaires d'ouverture</strong>du lundi au vendredi, de 11h à 18h. </li></ul><ul><li> <strong>Les animations</strong>Jeux de société, tarot, scrabble, lotos, bals, gymnastique,  sorties, fêtes, conférences, couture, sculpture, groupe vocal... <br />Jardin inter-générations</li></ul>;
283;Terrains de foot;Terrain de foot Bel Air;Les Cévennes;;;;;;;1428;43.6186904225;3.84008244531;874;;rue Paul Rimbaud;;;34000;Montpellier;;;0;;;;;;;Ligne 6;<h5> Horaires</h5><ul><li>Dans la journée : écoles, collèges, lycées</li><li>18h - 22h : clubs<br /> </li></ul><h5> <br />Tarifs</h5><ul><li>Gratuit pour les écoles primaires et les clubs sportifs</li><li>Payant pour collèges, lycées et universités. </li></ul><p>Dans tous les cas, une demande de créneaux devra être faite auprès du service des Sports </p>;
266;Salles de sports;Salle de sports Louis Nègre;Les Cévennes;;04 67 54 70 21;;;;;1343;43.6186315510;3.84722408543;;;Rue Paul Rimbaud;;;34080;Montpellier;;;0;;;;;;;ligne 6, La Ronde;<h5>Clubs sportifs et disciplines</h5><ul><li>CEP Montpellier Gymnastique sportive (04 67 63 82 02) </li><li>Gymnastique sportive 04 67 92 43 32 </li></ul><h5> <br />Horaires</h5><ul><li>Dans la journée : écoles, collèges, Universités</li><li>18h - 22h : clubs </li></ul><p>Dans tous les cas, une demande de créneaux devra être faite auprès du service des Sports. </p><h5>  <br />Tarifs</h5><ul><li>Gratuit pour les écoles primaires et clubs sportifs</li><li>Sous convention pour les collèges et les lycées. </li></ul>;
255;Salles de sports;Salle de sports Alain Achille;Montpellier Centre;;04 67 64 18 12;;;;;1315;43.6186255157;3.86915058236;1;;place Marcel-Godechot;;;34000;Montpellier;;;0;;;;;;"Tramway 1 : Station ""Saint Eloi"", La Ronde, La Navette 
";;;
656;Parcours sportifs;Parcours sportif domaine de Grammont;Port Marianne;;;;;;;330;43.6184608425;3.92710829902;;;Avenue Albert-Einstein;;;34000;Montpellier;;;0;;;;;;;Ligne 12;Distance : 2,5 Km <br />Parcours éclairé jusqu'à 22h <br />Accès libre;
754;Crèches municipales;Crèche Cléonice Pouzin;Montpellier Centre;;04 67 79 63 64;;;;;838;43.6184352951;3.88174089598;64;;rue Lunaret;;;34070;Montpellier;;;0;;;;;;;;;
174;Boulodromes de Pétanque;Boulodrome Parc Rimbaud;Montpellier Centre;Les Aubes;;;;;;777;43.6180870751;3.89370836673;;;Avenue de Saint-Maur;;;34000;Montpellier;;;0;;;;;;;;;
525;Plateaux sportifs;Stade d'Athlétisme Philippides;Montpellier Centre;;04 67 54 60 30;;;;Abords 200 places;88;43.6179878384;3.86837138157;542;;rue Auguste Broussonnet;;;34000;Montpellier;;;0;;;;;;Ligne 1 station Stade Philippides;;<p><strong> Horaires</strong></p><ul><li>Dans la journée jusqu'à 17h : Université I </li><li>de 17h à 20h : clubs </li><li>de 20h à 22h : public<br /> </li></ul>;
273;Stades;Stade Philippidès;Montpellier Centre;Boutonnet;;;;;;88;43.6179878384;3.86837138157;;;Rue Auguste Broussonnet;;;34000;Montpellier;;;0;;;;;;;;;
196;Gymnases;Gymnase Les Arts;Montpellier Centre;;;;;;;1326;43.6179394284;3.88255718317;;;Rue de la Cavalerie;;;34000;Montpellier;;;0;;;;;;;;<h5>Clubs sportifs et disciplines<br /> </h5><ul><li>Agropolis Volley loisir (04 67 04 63 86) </li><li>A.M.R.S Gymnastique loisir 04 67 04 59 47</li><li>A.S.B.A.M Volley 04 67 72 32 87 </li></ul><h5><br /> <br />Horaires</h5><ul><li>Dans la journée : écoles, universités</li><li>18h - 22h : clubs </li></ul><p>Dans tous les cas, une demande de créneaux devra être faite auprès du service des Sports.<br /> </p><h5><br /> <br />Tarifs</h5><ul><li>Gratuit pour les écoles primaires et clubs sportifs. </li><li>Sous convention pour les lycées et les collèges. <br /> </li></ul>;
1045;Jardins partagés;Parc Rimbaud;Montpellier Centre;Les Aubes;04 67 79 22 18;;;;;00159400;43.6179324131;3.89480979555;;;Rue Saint-André-de-Novigens;;;34000;Montpellier;;;0;;;;;;;;"<p>Renseignements : <a id=""TPL_ANNUAIRE"" title=""Maison pour tous George-Sand"" href=""#"" typelien=""LienTemplate"" ancre=""317"">Maison pour tous George-Sand</a></p>";
336;Collèges;Collège Las Cazes;Les Cévennes;;04 67 04 39 39;04 67 04 39 30;;;;38930;43.6177731051;3.84803304001;125;;rue de Cante-Gril;;;34030;Montpellier;Cedex 1;;0;;;;;;;;<p> Sans internat - avec demi pension</p>;
90;Ecoles élémentaires;Ecole élémentaire Louis Armstrong;Les Cévennes;;04 67 75 61 77;;;;;1269;43.6175004911;3.83903550184;971;;rue Paul Rimbaud;;;34080;Montpellier;;;0;;;;;;;;<p> </p>;
962;Autres lieux;Ecole supérieure des beaux-arts de Montpellier Agglomération;Montpellier Centre;Les Beaux-Arts;04 99 58 32 85;04 99 58 32 86;esbama@montpellier-agglo.com;esbama.free.fr;;39976;43.6174583279;3.88472375415;130;;rue Yehudi-Menuhin;;;34000;Montpellier;;;0;;;;;;"Station tramway ligne 2 : arrêt "" Beaux-Arts """;;<p>L'Ecole Supérieure des Beaux-Arts de Montpellier-Agglomération (esbama) est placée sous contrôle pédagogique du Ministère de la Culture et de la Communication.</p><p>Elle dépend de la Communauté d'Agglomération de Montpellier pour sa gestion administrative.</p>;
458;Marchés thématiques;Marché aux Plants;Mosson;;;;;;Parking gratuit Espace Mosson;00022500;43.6174173105;3.81767558524;;;Espace ;Mosson;;34000;Montpellier;;;0;;;;;;ligne 1 station Mosson;ligne 15 arrêt Europe;"<p>Tous les mardis de 7h &#224; 19h (producteurs exclusivement)</p>";
42;Ecoles maternelles;Ecole maternelle Geneviève-Bon;Les Cévennes;;04 67 75 02 34;;;;;1268;43.6173923471;3.83874367897;971;;rue Paul-Rimbaud;;;34080;Montpellier;;;0;;;;;;;;;
1290;Centres de recherche;Institut national de la recherche agronomique de Montpellier (INRA);Hôpitaux - Facultés;;04 99 61 22 00;04 67 54 32 01;;www.montpellier.inra.fr;;70012700;43.6173288629;3.85702276106;2;;place Pierre Viala;;;34060;Montpellier;Cedex 2;;0;;;;;;;;<p>L'Inra mène des recherches finalisées pour une alimentation adaptée, pour un environnement préservé et pour une agriculture compétitive et durable.</p>;
434;Clubs de loisirs;Club de loisirs Cavalerie;Montpellier Centre;;04 67 79 09 81;;;;;70025300;43.6172888209;3.88130856200;28;;rue;de la Cavalerie;Beaux arts;34000;Montpellier;;;0;;;;;;"ligne 1 station Corum
ligne 2 
";lignes 4 et 9 ;"<ul> <li><strong>Inscriptions</strong><br>Se renseigner aupr&#232;s du secr&#233;tariat. <br>Service gratuit pour les d&#233;tenteurs de la carte Age d'Or. </li> </ul> <ul> <li><strong>Horaires d'ouverture</strong><br>Ouvert du lundi au vendredi, de 11h00 &#224; 18h00 et le samedi de 13h00 &#224; 17h00 </li> </ul> <ul> <li><strong>Les animations</strong><br>- tango argentin, peinture sur verre et porcelaine, italien,&#160;ta&#238; - chi,&#160; gym, jeux de soci&#233;t&#233;, lotos, bals, sorties&#160; &#8230;&#160;</li> </ul> <ul> <li><strong>Centre de Ressources Informatiques</strong><br>Initiation, perfectionnement &#224; l'outil informatique (Windows, Word ... ) et &#224; la d&#233;couverte d'internet.<br>Animateur : Michel Larrieu </li> </ul> <p>* &#160;Horaires : <br>- 10h00 &#224; 12h00 pour la consultation en libre acc&#232;s ( lundi, mardi, jeudi et vendredi) <br>- 14h00 &#224; 16h00 pour les modules de formation ( lundi, mardi, jeudi et vendredi)</p> <p>* Inscription aux cours : <br>Tous les jours de 16h30 &#224; 17h30 au n&#176; de t&#233;l&#233;phone : 04 67 10 98 50</p> <p>* Tarifs <br>Libre acc&#232;s&#160; : 10 &#8364; pour 8 heures<br>Module&#160;de&#160;4 heures&#160;:&#160;20 &#8364; ou de 8 heures (sur 2 semaines, 4 fois 2h) : 40&#8364;</p>";
882;Parcs et jardins;Parc Magnol;Montpellier Centre;;;;;;;2056;43.6172467565;3.86313592691;;;Rue de Las Sorbes;;;34000;Montpellier;;;0;;;;;;;;<p>Ce magnifique square de quartier offre dans un cadre boisé de parc ancien, avec une collection d'arbres rares et majestueux, un havre de verdure pour les amoureux de la nature et une aire de jeux pour les jeunes enfants.</p>;
358;Résidences-foyers;Michel-Belorgeot;Les Cévennes;;04 67 40 04 44;;;;;70018000;43.6172282188;3.83208763440;41;;impasse des Moulins;;;34080;Montpellier;;;0;;;;;;;ligne 6;<p>La résidence est implantée dans le grand parc du domaine de Bel-Juel, lieu protégé du bruit mais ouvert sur la vie du quartier de Celleneuve.<br />La maison constituée de trois lieux de vie est adaptée à l’évolution possible de l’autonomie des résidants.</p><p>Sa capacité d’accueil est de 83 lits dont 58 en secteur de cure médicale. <br />Un lieu de vie, ouvert sur le parc, a été conçu pour les personnes à mobilité réduite, avec une architecture spécifique et un mobilier ergonomique. <br />Un autre accueille les personnes présentant des troubles liés à la mémoire.</p><p>Les trois unités s’articulent autour d’un espace de vie commun, rassemblant les activités de tous les résidants.</p><p>L’établissement est équipé d’un centre de prévention de la dépendance, axé sur la balnéothérapie, l’ergothérapie, la musicothérapie.</p>;
182;Centre équestre;Centre équestre municipal - Domaine de Grammont;Port Marianne;Grammont;;;c.e.m.g@wanadoo.fr;perso.orange.fr/cemg/;;215;43.6172271217;3.92883962828;;;Avenue Albert Einstein;;;34000;Montpellier;;;0;;;;;;;ligne 12;<p>Afin de développer l'équitation, grande pourvoyeuse de médailles aux jeux olympiques, la ville de Montpellier s'est dotée d'un outil performant répondant à plusieurs objectifs : <br />- Centre de loisirs, il permet aux amoureux du cheval de découvrir un moyen privilégié de détente et de contact avec la nature. <br />- Centre sportif : il est le lieu de manifestations et de compétitions de hauts niveau. <br />- Ensemble de formation et d'instruction, il assure la formation d'enseignants diplômés.<br /> </p><p><strong>Année de réalisation</strong><br />Début des travaux : juin 1991 <br />Fin des travaux : novembre 1991<br /> </p><p><strong>Équipements</strong></p><ul><li>1 club house</li><li>1 vestiaire sanitaire</li><li>1 écurie de 55 box </li><li>1 manège couvert</li><li>2 carrières découvertes</li><li>1 paillère </li></ul><p><br /><strong>Principales disciplines</strong></p><ul><li>Équitation</li><li>Dressage </li><li>Sauts d'obstacles</li><li>Initiation au poney </li></ul><p><br /><strong> Locaux annexes</strong></p><ul><li>Fumière </li><li>Silo à granulés</li><li>Enclos à poneys </li><li>1 box atelier </li><li>1 box à pharmacie </li><li>1 box préparation des repas </li><li>1 box de stockage orge </li><li>1 box de stockage avoine et maïs </li></ul><p>  <br /><strong>Caractéristiques techniques</strong></p><ul><li>Éclairage du manège couvert </li><li>Manège constitué en copeaux de bois </li><li>Arrosage automatique du manège</li><li>Carrière constitué en sable + couche drainante + arrosage automatique<br /> </li></ul><p><strong>Horaires et tarifs</strong><br />Contacter le Centre Équestre</p>;
104;Ecoles élémentaires;Ecole élémentaire Condorcet;Montpellier Centre;;04 67 63 19 98;;;;;995;43.6170476104;3.87449334852;13;;rue du Faubourg Boutonnet;;;34000;Montpellier;;;0;;;;;;;;<p> </p>;
145;Marchés de quartiers;Marché St-Clément;Les Cévennes;;;;;;;296700;43.6170150958;3.84537195658;;;Parc ;Bartolomé de Las Cazas;;34000;Montpellier;;;0;;;;;;;;"<ul> <li>12 commer&#231;ants exclusivement alimentaires</li> <li>Dimanche de 7h30 &#224; 13h. </li> <li>Jeudi en nocturne de 16h &#224; 19h et les mardis et dimanches en &#233;t&#233;</li> </ul>";
339;Collèges;Collège Arthur Rimbaud;Mosson;;04 67 75 43 90;04 67 75 61 17;;;;70011200;43.6170065358;3.82155090755;2;;rue Marius-Petipa;;;34080;Montpellier;;;0;;;;;;;;<p>Sans internat - avec demi pension</p>;
1176;Ecoles élémentaires;Ecole élémentaire Jules Verne;Montpellier Centre;;04 99 62 38 84;;;;;1565;43.6169697435;3.88376565715;127;;rue Yehudi Menuhin;;;34000;Montpellier;;;0;;;;;;;;<p> </p>;
59;Ecoles maternelles;Ecole maternelle Mozart;Montpellier Centre;;04 67 63 15 61;;;;;901;43.6169500248;3.86169012353;60;;avenue d'Assas;;;34000;Montpellier;;;0;;;;;;;;;
334;Collèges;Collège Camille-Claudel;Montpellier Centre;Boutonnet;04 67 63 09 72;04 67 41 47 49;;;;39750;43.6167853971;3.86263159479;5;;rue Louis-Roumieux;;;34000;Montpellier;;;0;;;;;;;;<p> Sans internat - avec demi pension</p>;
91;Ecoles élémentaires;Ecole élémentaire Charles Baudelaire;Les Cévennes;;04 67 63 08 53;;;;;1147;43.6166694458;3.84610756762;311;;avenue Saint-Clément;;;34000;Montpellier;;;0;;;;;;;;;
48;Ecoles maternelles;Ecole maternelle Rudyard-Kipling;Les Cévennes;;04 67 63 09 65;;;;;1145;43.6165276363;3.84545273486;311;;avenue Saint Clément;;;34000;Montpellier;;;0;;;;;;;;;
109;Ecoles élémentaires;Ecole élémentaire Berthe Morisot;Montpellier Centre;;04 67 63 03 37;;;;;899;43.6164778100;3.86244579954;60;;avenue d'Assas;;;34000;Montpellier;;;0;;;;;;;;;
314;Maisons pour tous;Maison de quartier Frédéric Chopin;Montpellier Centre;Les Beaux-Arts;04 67 72 61 83;04 67 72 61 61;mpt.f.chopin@wanadoo.fr;;;746;43.6161723445;3.88404682445;1;;rue ;du Marché aux Bestiaux;;34000;Montpellier;;;0;;;;;;ligne 1 station Corum / ligne 2 station Beaux-Arts;;"<p><strong>Accueil et renseignements</strong><br>Du lundi au vendredi de 9h &#224; 12h et de 14h &#224; 19h</p>";
189;Gymnases;Gymnase Arthur Rimbaud;Mosson;;;;;;;1646;43.6161523748;3.82157165071;2;;rue Marius-Petipa;;;34080;Montpellier;;;0;;;;;;;;<h5> Clubs sportifs et disciplines<br /> </h5><ul><li>Come on Volley : Volley (04 67 66 01 34)</li><li>AS Sourds de Montpellier Volley : Volley Télécopie  (04 67 20 89 69) </li><li>Montpellier Basket : Mosson Basket (06 20 77 24 03)</li><li>ISIM Ominisports (04 67 14 30 97) </li></ul><h5>Horaires</h5><ul><li>8h - 18h : collège Arthur Rimbaud </li><li>18h - 22h : clubs</li></ul><h5>  <br />Tarifs</h5><ul><li><p>Sous convention avec le Conseil Général </p></li><li><p>Gratuit pour les clubs sportifs</p></li></ul>;
95;Ecoles élémentaires;Ecole élémentaire Joseph Delteil;Les Cévennes;;04 67 10 05 76;;;;;1495;43.6160577433;3.83903643765;;;Rue des Araucarias;;;34080;Montpellier;;;0;;;;;;;;;
921;Parcs et jardins;Parc Azéma;Mosson;;;;;;;00164800;43.6160487309;3.82867921482;;;Rue des Communautés;;;34080;Montpellier;;;0;;;;;;;;<p>Ici encore, la végétation se veut résolument méditerranéenne. Cèdres, cyprès et bambous composent ce sous-bois original, ancien square du petit séminaire dédié à Pierre Azéma, « médecin des pauvres ».</p>;
141;Marchés de quartiers;Marché des Beaux-Arts;Montpellier Centre;;;;;;;00160400;43.6158834806;3.88137451234;;;Place ;des Beaux-Arts;;34000;Montpellier;;;0;;;;;;ligne 1 station Corum;lignes 4 et 9 arrêt Bernard Délicieux;"<ul> <li>&#160;Jusqu'&#224; 7 commer&#231;ants selon les jours.&#160;</li> </ul> <ul> <li>Ouverture<br>Du lundi au samedi de 7h &#224; 13h&#160;<br><br>&#160;</li> </ul>";
214;Multisports;Terrain multisports Petit Bard;Mosson;;;;;;;1662;43.6157625623;3.83967398465;;;Rue du Lyciet;;;34000;Montpellier;;;0;;;;;;;;<p> </p>;
49;Ecoles maternelles;Ecole maternelle Jules-Michelet;Les Cévennes;;04 67 10 06 05;;;;;1469;43.6156990884;3.83879952964;;;Rue des Araucarias;;;34080;Montpellier;;;0;;;;;;;;;
1280;Cliniques;Polyclinique Saint-Roch;Montpellier Centre;;04 67 61 88 88;;;www.oc-sante.fr/etablissement/presentation-116.html;;39075;43.6156247288;3.86859085301;43;;rue;du faubourg Saint-Jaumes;;34 967;Montpellier;;;0;;;;;;Ligne 1, station Stade Philippidès;"Ligne 7, arrêt Saint-Roch.
";"<p>M&#233;decine, chirurgie, maternit&#233; (groupe OC Sant&#233;)</p> <p>&#160;</p>";
58;Ecoles maternelles;Ecole maternelle Jean-de-la-Fontaine;Montpellier Centre;;04 67 72 35 57;;;;;1086;43.6153667043;3.87830466969;27;;quai des Taneurs;;;34000;Montpellier;;;0;;;;;;;;;
558;Postes de Police municipale;Poste de police municipale Petit-Bard;Les Cévennes;;04 67 45 12 20;;;;;40818;43.6153475555;3.83899507962;14;;avenue du Petit-Bard;;;34030;Montpellier;;;0;;;;;;;;<ul><li>Heures d'ouverture : du lundi au vendredi de 7h à 21h. </li><li>Ce poste couvre les sous-quartiers : <br />- Alco, <br />- Les Cévennes, <br />- La Martelle, <br />- La Chamberte. </li></ul>;
305;Maisons pour tous;Maison pour tous François Villon;Les Cévennes;Alco;04 67 45 04 57;04 67 40 12 52;mpt.f.villon@wanadoo.fr;;;1687;43.6153222380;3.83929175904;;;Rue ;des Araucarias;;34080;Montpellier;;;0;;;;;;;6 arrêt Pergola / 15 ou La Ronde arrêt Les Tonnelles / 16 arrêt Le Belvédère;"<p><strong>Accueil et renseignements</strong><br>Du lundi au vendredi de 9h &#224; 12h et de 14h &#224; 19h</p> <p>Vendredi fermeture &#224; 18h<br>Vacances scolaires fermeture &#224; 18h15</p>";
433;Clubs de loisirs;Club de loisirs Paul Boulet;Les Cévennes;;04 67 40 43 87;;;;;00053001;43.6153010057;3.83917355546;4;;square Appolinaire;rue des Araucarias;MPT François VILLON;34030;Montpellier;;;0;;;;;;;lignes n° 15 et 6;"<ul> <li><strong>Inscriptions</strong><br>Se renseigner aupr&#232;s du secr&#233;tariat. <br>Service gratuit pour les d&#233;tenteurs de la carte Age d'Or. </li> <li><strong>Horaires d'ouverture</strong> <br>du lundi au vendredi, de 11h &#224; 18h.&#160;</li> <li><strong>Les animations</strong><br>Jeux de soci&#233;t&#233;, lotos, bals, sorties, f&#234;tes, gymnastique, conf&#233;rences,<br>atelier d'expression... </li> </ul>";
332;Collèges;Collège Clémence-Royer;Montpellier Centre;Centre historique;04 67 79 61 87;04 67 79 94 28;;;;39510;43.6152673610;3.87636648723;17;;bd Pasteur;;;34000;Montpellier;;;0;;;;;;;;<p>Sans internat - avec demi pension</p>;
205;Multisports;Terrain multisports Celleneuve;Mosson;;;;;;;1665;43.6143667747;3.82239418995;;;Quai Louis Le Vau;;;34000;Montpellier;;;0;;;;;;;;<ul><li>Activités proposées<br />Ces équipements de proximité sont accessibles à tout public. <br />Football <br />Handball <br />Volley ball <br />Basket ball<br /> </li><li>Horaires : 8h à 22h</li><li>Tarifs :gratuit</li></ul>;
56;Ecoles maternelles;Ecole maternelle Vasco-de-Gama;Montpellier Centre;;04 67 65 04 92;;;;;1045;43.6141657094;3.89212769105;156;;rue de la Croix du sud;;;34000;Montpellier;;;0;;;;;;;;;
108;Ecoles élémentaires;Ecole élémentaire Jean Mermoz;Montpellier Centre;;04 67 65 04 66;;;;;1044;43.6139729248;3.89205733823;196;;rue de la Croix du Sud;;;34000;Montpellier;;;0;;;;;;;;<p> </p>;
1294;Autres contacts utiles;Université Montpellier I - UFR de Droit;Montpellier Centre;;04 67 61 54 00;04 67 60 42 31;sra@univ-montp1.fr;www.univ-montp1.fr/l_universite/ufr_et_instituts/ufr_droit;;39166;43.6138559265;3.87688156616;39;;rue de l'Université;;;34060;Montpellier;;;0;;;;;;;;<p> </p>;
321;Maisons pour tous;Maison pour tous Mélina Mercouri;Port Marianne;Millénaire;04 99 92 23 80;04 99 92 23 81;mpt.mercouri@wanadoo.fr;;;1707;43.6136894469;3.90831993964;842;;rue;de la Vieille Poste;;34000;Montpellier;;;0;;;;;;;9 ou La Ronde arrêt Pinville;"<p><strong>Accueil et renseignements</strong><br>Du lundi au vendredi de 9h &#224; 12h30 et de 14h &#224; 19h30</p> <p>Vendredi fermeture &#224; 18h30</p>";
36;Ecoles maternelles;Ecole maternelle Marie-Pape-Carpantier;Mosson;;04 67 75 25 35;;;;;1251;43.6136694866;3.82758327838;12;;rue des Ecoles;;;34080;Montpellier;;;0;;;;;;;;;
1415;Parkings du centre ville;Parking du Corum;Montpellier Centre;Les Beaux-Arts;04 67 79 04 59;;;;;00020000;43.6136448134;3.88181235778;;;Avenue ;de Nîmes;;34000;Montpellier;;;0;;;;;;Station Corum;;"<p>Parking priv&#233; de 500 places g&#233;r&#233; par TaM<br><a id=""196"" href=""#"" typelien=""LienInterne"" libelle_ancre=""undefined"">Participe &#224; l'op&#233;ration ""ch&#232;que parking""</a></p>";"<p>Parking priv&#233; de 500 places g&#233;r&#233; par TaM, offrant les services suivants : <br>- Lanceur de batterie <br>- R&#233;cup&#233;ration des piles usag&#233;es et journaux <br>- Places de courtoisie<br>- Modulauto<br>- Gonfleur pour pneu<br>- Velomagg'<br>- Parc &#224; v&#233;los<br>- Places familiales</p> <p><strong><br>Abonnements et forfait propos&#233;s :</strong> <br>- Forfait Grand C&#339;ur<br>- Abonnement r&#233;sident<br>- Abonnement travail</p>"
288;Terrains de foot;Terrain de foot Domaine de Grammont;Port Marianne;;04 67 64 29 55;;;;;796;43.6133254399;3.92491671917;;;Avenue Albert Einstein;;;34000;Montpellier;;;0;;;;;;;Ligne 12;<ul><li><h5>Équipements</h5></li><li>Terrains 1 et 2 stabilisés</li><li>Terrains 3, 4, 6, 7 pelousés</li><li>Terrains 5 et 8 synthétiques.<br /> </li></ul><h5> <br />Horaires</h5><ul><li>Terrains 1, 2, 8 dans la journée : collèges, lycées</li><li>Terrains 3, 4, 5, 6, 7 réservés exclusivement aux clubs.<br /> </li></ul><h5> <br />Tarifs</h5><ul><li>Gratuit pour les clubs sportifs</li><li>Payant pour collèges, lycées et universités. </li></ul><p>Dans tous les cas, une demande de créneaux devra être faite auprès du service des Sports.</p><p>Pour en savoir plus : Le service municipal des Sports  </p>;
159;Boulodromes de Pétanque;Boulodrome Celleneuve;Mosson;Celleneuve;;;;;;758;43.6132938329;3.83060557209;;;Esplanade de Celleneuve;;;34080;Montpellier;;;0;;;;;;;;;
1295;Autres contacts utiles;Université Montpellier I - UFR de Médecine;Montpellier Centre;;04 67 60 10 00;04 67 66 17 57;agmed@univ-montp1.fr;www.univ-montp1.fr/l_universite/ufr_et_instituts/ufr_medecine;;39170;43.6132905519;3.87365096811;2;;rue Ecole de Médecine;;CS 59001;34060;Montpellier;Cedex 2;;0;;;;;;;;<p> </p>;
199;Gymnases;Gymnase Micheline Ostermeyer;Les Cévennes;;04 67 54 69 15;;;;;790;43.6132649180;3.84999888914;;;Rue de Las-Sorbes;;;34070;Montpellier;;;0;;;;;;;;<h5>Clubs sportifs et disciplines<br /> </h5><ul><li>FFEPGV Tesse Gymnastique Loisir (04 67 75 42 49)</li><li>MUC Handball (04 67 79 13 25) </li><li>V.L.M Volley (04 67 40 40 69) </li></ul><h5> <br />Horaires</h5><ul><li>dans la journée : lycées</li><li>18h - 22h : clubs </li></ul><p>Dans tous les cas, une demande de créneaux devra être faite auprès du service des Sports.<br /> </p><h5>Tarifs</h5><ul><li>Gratuit pour les clubs sportifs.</li><li>Sous convention pour les lycées et les collèges .<br /></li></ul>;
663;Tennis;Tennis domaine de Grammont;Port Marianne;;04 67 64 29 55;;;;;811;43.6131247215;3.92406519847;;;Avenue Albert-Einstein;;;34000;Montpellier;;;0;;;;;;;;<ul><li>Caractéristiques<br />10 courts plein air <br />1 court couvert</li><li> Horaires<br />8h00 - 22h00</li><li>Tarifs<br />Se renseigner auprès des clubs.<br /> </li></ul>;
1270;Cliniques;Clinique Clémentville;Montpellier Centre;;04 67 06 70 00;04 67 06 70 01;;www.clinique-clementville.fr;;39074;43.6128953017;3.85195384678;25;;rue;de Clémentville;;34070;Montpellier;;;0;;;;;;Connexion avec le tramway, ligne 16 au Château d'O  ;Les lignes : 1, 6 et 16 desservent la Clinique Clémentville;"<p>M&#233;decine, chirurgie, maternit&#233;.</p> <p>(Groupe OC Sant&#233;)</p>";"<p><strong>Pr&#233;cision acc&#232;s :</strong></p> <p>Depuis l&#8217;autoroute A 9<br>Sortie Montpellier Sud <br>Arriv&#233; au Rond-point des Pr&#233;s d'Ar&#232;nes, prendre la rue de l'Abrivado (direction Pr&#233;s d'Ar&#232;nes) <br>Continuer avenue des Pr&#233;s d'Ar&#232;nes, avenue de la Libert&#233; et prendre &#224; droite rue du Professeur Forgues <br>Prendre &#224; droite avenue de Lod&#232;ve, &#224; gauche rue de Cl&#233;mentville, &#224; droite rue des Sureaux et &#224; nouveau rue de Cl&#233;mentville.</p>"
443;Clubs de loisirs;Club de loisirs Vincent Scotto;Mosson;;04 67 45 53 86;;;;;70021200;43.6128531977;3.83069742533;;;Rue Jacques Lemercier;;Le Clos de la Fontaine Cour Liberal Bruant;34080;Montpellier;;;0;;;;;;;Lignes 15 et 14 ;<ul><li><strong>Inscriptions</strong><br />Se renseigner auprès du secrétariat. <br />Service gratuit pour les détenteurs de la carte Age d'Or. </li></ul><ul><li><strong>Horaires d'o</font />uverture</strong><br />du lundi au vendredi, de 11h à 18h</li></ul><ul><li><strong>Les animations</strong><br />Jeux de société, tarot, bidge, scrabble, peinture sur verre, lotos, bals, sorties, fêtes,  patchwork sur carton appliqué sur tissus, peinture sur soie, conférences, gymnastique, Goûter littéraire ...<br /> </li></ul>;
422;Mairies annexes;Mairie annexe Celleneuve;Mosson;Celleneuve;04 67 75 63 23 - 04 67 75 10 34;;;;;00057401;43.6126729878;3.83070918877;13;;allée ;Antonin Chauliac;Maison pour tous Marie Curie;34080;Montpellier;;;0;;;;;;;ligne 15 arrêt Marie Curie;"<ul> <li>Heures d&#8217;ouverture : de&#160;8h45 &#224; 12h15 et de 13h00&#160;&#224; 16h30</li> <li><a id=""11312"" href=""#"" typelien=""LienDocument"">Modalit&#233; de d&#233;livrance des Passeports biom&#233;triques</a></li> </ul> <ul> <li>Situ&#233;e&#160;dans les locaux de la <a id=""520"" href=""#"" title=""Maison pour tous Marie Curie"" typelien=""LienInterne"">Maison pour tous Marie-Curie</a> </li> </ul>";
318;Maisons pour tous;Maison pour tous Marie Curie;Mosson;Celleneuve;04 67 75 10 34;04 67 75 36 19;mptmcurie@mpt.ville-montpellier.fr;;;1729;43.6126493760;3.83057738457;13;;allée ;Antonin Chauliac;;34080;Montpellier;;;0;;;;;;;15 et 25 arrêt Marie Curie;"<p><strong>Accueil et renseignements</strong><br>Du lundi au vendredi de 9h &#224; 12h30 et de 13h30 &#224; 19h</p>";
400;Lycées;Lycée Jules Guesdes;Les Cévennes;;04 67 10 33 70;04 67 10 33 99;;www.masdetesse.com;;38933;43.6126178930;3.84845499403;110;;avenue de Lodève;;;34060;Montpellier; Cedex 1;;0;;;;;;;;<ul><li>lycée polyvalent </li><li>Sans internat - avec demi-pension </li></ul>;
1064;Salles d'expo;La Panacée;Montpellier Centre;Centre historique;04 67 34 88 80 (administration) ;04 67 34 88 90;;;;475;43.6126058828;3.87805650766;14;;rue ;de l’école de pharmacie;;34000;Montpellier;;PRATICABLE;2;AUX_NORMES;;;;;ligne 1, station Louis-Blanc;;"<p>La Panac&#233;e est l&#8217;ancienne Universit&#233; de M&#233;decine, devenue tour &#224; tour facult&#233; de pharmacie, &#233;cole de droit et laboratoire national de sant&#233; au XX<sup>e </sup>si&#232;cle.</p> <h5>Perspectives</h5> <p>La Panac&#233;e est en passe de devenir un lieu d&#8217;art contemporain. Outre des expositions, il devrait s&#8217;y d&#233;rouler des cycles de conf&#233;rences, des interventions autour des arts plastiques et des pratiques artistiques actuelles. Des ateliers ainsi que des r&#233;sidences d&#8217;artistes font partie du projet g&#233;n&#233;ral. Il s&#8217;agit de cr&#233;er un lieu vivant, ouvert &#224; tous les publics, o&#249; les diff&#233;rentes formes d&#8217;art pourraient se rencontrer, se croiser.</p>";
122;Ecoles élémentaires;Ecole élémentaire Léo Malet;Mosson;;04 67 75 46 45;;;;;954;43.6125068347;3.83101950740;5;;allée Pierre Carabasse;;;34080;Montpellier;;;0;;;;;;;;<p> </p>;
537;Piscines;Piscine Pitot;Montpellier Centre;Centre historique;04 67 52 58 89;;;;;1463;43.6124878168;3.87031842074;40;;allée Jean-Raymond;;;34000;Montpellier;;;0;;;;;;;lignes 6, 7 et 16 arrêt Pitot;"<p><img alt=""Photo piscine Pitot"" src=""/uploads/WEB_CHEMIN_926_1128951666.gif"" align=""left"" idtf=""926"" />Cette piscine ?couverte de 25 mètres et 5 couloirs, gérée par <a id=""310"" title=""Montpellier Agglomération"" href=""#"" typelien=""LienExterne"">Montpellier Agglomération</a>, est très fréquentée notamment par ?les étudiants.? </p>";
61;Ecoles maternelles;Ecole maternelle Jean-Jacques-Rousseau;Montpellier Centre;;04 67 60 61 94;;;;;1274;43.6124867085;3.87592396932;21;;rue d'Aigrefeuille;;;34000;Montpellier;;;0;;;;;;;;;
714;Skate board;Piste de skate board de Grammont;Port Marianne;;;;;;;739;43.6124722569;3.92862026435;;;Avenue Albert-Einstein;;;34000;Montpellier;;;0;;;;;;;Ligne 12;<p>Cette activité est ouverte aux clubs et au public </p><p><br />Pour en savoir plus : Annuaire des associations  </p><ul><li> Horaires : 8h à 22h </li></ul><p>Pas d'autorisation nécessaire<br /> </p><ul><li> Sécurité<br />Se conformer au réglement intérieur affiché sur le site<br /> </li><li> Tarifs<br />Gratuit</li></ul><p>Pour en savoir plus : Complexe sportif de Grammont</font /> </p>;
271;Stades;Stade Alain-Delylle;Les Cévennes;Les Cévennes;;;;;;791;43.6124321378;3.85033792969;;;Rue de Las Sorbes;;;34000;Montpellier;;;0;;;;;;;;<p> </p>;
1413;Parkings du centre ville;Parking des Arceaux;Montpellier Centre;Les Arceaux;04 67 52 00 80;;;;;1767;43.6123553926;3.87068635490;;;Place;des Arceaux;;34000;Montpellier;;;0;;;;;;;;"<p>Parking public de 200 places g&#233;r&#233; par TaM<br><a id=""196"" href=""#"" typelien=""LienInterne"" libelle_ancre=""undefined"">Participe &#224; l'op&#233;ration ""ch&#232;que parking""</a></p>";"<p>Parking public de 200 places g&#233;r&#233; par TaM, offrant les services suivants : <br>- Lanceur de batterie <br>- R&#233;cup&#233;ration des piles usag&#233;es et journaux <br>- Modulauto<br>- Velomagg'</p> <p><strong>Abonnements et forfaits propos&#233;s : <br></strong>- Permanent r&#233;sident<br>- Forfait Grand C&#339;ur<br>- Nuit r&#233;sident<br>- Nuit + week-end<br>- Permanent travail<br>- Multiparc<br>- Multiparc +<br>- Forfait entre 12h et 14h<br>- Forfait entre 20h et 7h</p>"
1421;Parkings du centre ville;Parking Pitot;Montpellier Centre;Les Arceaux;;;;;;1767;43.6123553926;3.87068635490;;;Rue;Pitot;;34000;Montpellier;;;0;;;;;;;;"<p>Parking public de 519 places g&#233;r&#233; par VINCI PARK<br><a id=""196"" href=""#"" typelien=""LienInterne"" libelle_ancre=""undefined"">Participe &#224; l'op&#233;ration ""ch&#232;que parking""</a></p>";"<p>Parking public de 519 places g&#233;r&#233; par VINCI PARK, offrant les services suivants : <br>- Pr&#234;t de cabas, parapluie, kit de d&#233;pannage<br>- Consigne casques de moto<br>- Accompagnement des clients &#224; leur voiture<br>- Stationnement offert aux &#233;poux le jour de leur mariage<br>- Stationnement offert aux clients le jour de leur anniversaire<br>- Nombreux moyens de paiement</p> <p><strong></strong></p> <p><strong>Abonnements propos&#233;s :</strong><br>- Abonnement annuel longue dur&#233;e<br>- Forfait de passage &#224; partir de 3 jours</p> <p>&#160;</p>"
307;Maisons pour tous;Maison de quartier Jacques Prévert;Les Cévennes;Alco;04 67 04 23 10;04 67 04 03 10;mptguillierme@mpt.ville-montpellier.fr;;;1689;43.6122059176;3.85503324878;14;;rue ;des Sureaux;Cité Astruc;34080;Montpellier;;;0;;;;;;;15 arrêt Cité Astruc;"<p><strong>Accueil et renseignements</strong><br><a id=""523"" href=""#"" title=""Maison pour tous Fanfonne Guillierme "" typelien=""LienInterne"" libelle_ancre=""undefined"">Maison pour tous Fanfonne Guillierme</a></p>";
200;Gymnases;Gymnase Mireille Bessières;Port Marianne;;;;;;;1572;43.6121113501;3.90833864970;175;;rue Edouard-Villalonga;;;34000;Montpellier;;;0;;;;;;;;<h5>Clubs sportifs et disciplines <br /> </h5><ul><li>Chemin des Cîmes Volley (04 67 52 31 68)</li><li>Communauté d'Agglomération de Montpellier Volley (04 6713 61 28)</li><li>IBM Volley (04 67 34 49 76) </li><li>Majorettes de Montpellier  (04 67 45 65 87) <br />Montpellier Volley (04 67 45 77 77)</li><li>Montpellier VBA Volley loisirs (04 67 40 05 72) </li><li>ASPTT Volley (04 99 52 60 70)</li><li>ASPTT Aïkido (04 99 52 60 70)</li><li>ASPTT Gymnastique (04 99 52 60 70) </li><li>ASPTT Judo (04 99 52 60 70)</li><li>Do Contact Taekwondo (04 67 79 59 34)</li><li>IBM Gymnastique Yoga (04 67 34 49 76)</li><li>IBM Judo (04 67 34 49 76)</li><li>Viet Vo Dao Judo (04 67 10 99 65)</li></ul><h5> <br />Horaires</h5><ul><li>dans la journée : écoles, collèges </li><li>18h-22h : clubs </li></ul><p>Dans tous les cas, une demande de créneaux devra être faite auprès du service des Sports.<br /> </p><h5> <br />Tarifs</h5><ul><li>Gratuit pour les écoles primaires et clubs sportifs,</li><li>Sous convention pour les collèges et les lycées.<br /> </li></ul>;
127;Ecoles élémentaires;Ecole élémentaire Blaise Pascal;Port Marianne;;04 67 22 11 72;;;;;1474;43.6120638763;3.90742675661;100;;rue Louis Lépine;;;34000;Montpellier;;;0;;;;;;;;<p> </p>;
436;Clubs de loisirs;Club de loisirs Jeanne Galzy;Les Cévennes;;04 67 92 03 25;;;;;2154;43.6119834432;3.85455886801;14;;allée ;de Clémenville;Cité Astruc;34000;Montpellier;;;0;;;;;;;lignes 6 et 15;"<ul> <li>Inscriptions<br>Se renseigner aupr&#232;s du secr&#233;tariat. <br>Service gratuit pour les d&#233;tenteurs de la carte Age d'Or. </li> </ul> <ul> <li>Horaires d'ouverture<br>du lundi au vendredi, de 11h &#224; 18h et le samedi de 13h &#224; 17h. </li> </ul> <ul> <li>&#160;Les animations<br>Jeux de soci&#233;t&#233;, lotos, bals, gymnastique, couture, les &#233;maux sur cuivre, sorties, f&#234;tes,&#160;danse de salon ( Rock) ... </li> </ul>";
394;Lycées;Lycée Joffre;Montpellier Centre;Antigone;04 67 14 84 84;04 67 14 84 60;;www.lyceejoffre.net;;38928;43.6117587359;3.88544131879;150;; allée de la Citadelle;;;34060;Montpellier;Cedex 2;;0;;;;;;;;<ul><li>Lycée général </li><li>Avec internat et demi-pension </li></ul>;
157;Boulodromes de Pétanque;Boulodrome des Arceaux;Montpellier Centre;Les Arceaux;;;;;;763;43.6116754215;3.86548487971;;;Boulevard des Arceaux;;;34000;Montpellier;;;0;;;;;;;;<p> </p>;
282;Terrains de foot;Terrain de foot Astruc;Les Cévennes;;;;;;;1425;43.6116726321;3.85327847902;;;Rue des Coronilles;;;34000;Montpellier;;;0;;;;;;;Ligne 15;<h5>Horaires</h5><ul><li>Dans la journée : écoles, collèges, lycées</li><li> 18h - 22h : clubs </li></ul><h5>Tarifs</h5><ul><li>Gratuit pour les écoles primaires et les clubs sportifs</li><li>Payant pour les collèges, lycées, universités. </li></ul><p>Dans tous les cas, une demande de créneaux devra être faite auprès du service des Sports </p>;
69;Ecoles maternelles;Ecole maternelle Sarah-Bernhardt;Port Marianne;;04 67 22 39 12;;;;;1472;43.6116705104;3.90756543583;175;;Rue Villalonga;;;34000;Montpellier;;;0;;;;;;;;;
158;Boulodromes de Pétanque;Boulodrome Astruc;Les Cévennes;;;;;;;1578;43.6114987950;3.85420266558;;;Rue des Coronilles;;;34000;Montpellier;;;0;;;;;;;;<p> </p>;
454;Grands marchés;Marché des Arceaux;Montpellier Centre;;;;;;Parking des Arceaux : 210 places;00056600;43.6114265584;3.86479878285;;;Boulevard ;des Arceaux;;34000;Montpellier;;;0;;;;;;;"Lignes 6 et 16 arrêt Arceaux 
";"<ul> <li>Jusqu'&#224; 80 commer&#231;ants selon les jours </li> <li>Ouverture le lundi&#160;: un mara&#238;cher</li> <li>Ouverture le&#160;mardi et le&#160;samedi de 7h &#224; 13h </li> </ul>";
396;Lycées;Lycée Jean Mermoz;Montpellier Centre;Antigone; 04 67 20 60 00; 04 67 20 60 07;;www.lycee-mermoz.net;;38934;43.6113915874;3.89121971005;717;;avenue Jean Mermoz;;;34060;Montpellier;Cedex 1;;0;;;;;;;; <ul><li>Lycée polyvalent </li><li>Avec internat et demi-pension </li></ul>;
576;Fontaines;Bassin Champ de Mars;Montpellier Centre;;;;;;Comédie;356;43.6113484161;3.88120091343;;;Esplanade Charles de Gaulle;;;34000;Montpellier;;;0;;;;;;ligne 1 - station Comédie;;<h5>Historique</h5><ul><li>Créé en 1900</li></ul>;
871;Parcs et jardins;Esplanade Charles-de-Gaulle;Montpellier Centre;;;;;;Corum - Polygone;356;43.6113484161;3.88120091343;;;Boulevard Sarrail;;;34000;Montpellier;;;0;;;;;;lignes 1 ou 2, arrêts Comédie ou Corum;;"<p align=""justify"">Bordée de quatre rangées de platanes depuis le milieu du XIXè siècle, l’Esplanade Charles de Gaulle, promenade ombragée, égayée de guinguettes et de glaciers, constitue une étape rafraîchissante et reposante en lisière du centre historique. Ses pelouses aux plantations fleuries s’ornent de basins hexagonaux, reconstruits en 1988 à l’image des fontaines d’origine datant du XVIIIè siècle.</p>";
99;Ecoles élémentaires;Ecole élémentaire Jeanne d'Arc;Montpellier Centre;;04 67 92 35 72;;;;;959;43.6113402679;3.86596437310;9;;boulevard des Arceaux;;;34000;Montpellier;;;0;;;;;;;;<p> </p>;
52;Ecoles maternelles;Ecole maternelle Chaptal;Montpellier Centre;;04 67 92 35 43;;;;;961;43.6112981601;3.86630945320;9;;boulevard des Arceaux;;;34000;Montpellier;;;0;;;;;;;;;
327;Collèges;Collège Joffre;Montpellier Centre;Antigone;04 67 15 95 40;04 67 64 47 61;;212.44.228.14/websig/plan.asp?functions=localisationEquip&id=70011500_batiment&divers=&actionPlan=&LastactionPlan=zoomAvant&LastScale=1&scale=2;;39124;43.6110390211;3.88803861083;;;Allée Henri II de Montmorency;;;34000;Montpellier;;;0;;;;;;;;<ul><li>sans internat</li><li>avec demi-prension</li></ul>;
47;Ecoles maternelles;Ecole maternelle Johann Wolfgang Von Goethe;Les Cévennes;;04 67 92 75 38;;;;;968;43.6110284910;3.85327359844;3;;rue des Coronilles;;;34000;Montpellier;;;0;;;;;;;;<p> </p>;
354;Résidences-foyers;Montpellieret;Montpellier Centre;;04 67 66 14 98;;;;Comédie et Le Corum;39085;43.6109383383;3.87958035869;3;;rue Fabre;;;34000;Montpellier;;;0;;;;;;ligne 1 Comédie;tous les bus du centre-ville;<p>Cet établissement, situé en plein centre-ville, peut accueillir 81 résidants qui ont à leur portée toutes les distractions que peut offrir une grande ville comme Montpellier : théâtre, commerces, opéras, jardins de l’Esplanade, musées…</p><p>Trois salles de télévision sont à la disposition des résidants ainsi que des jeux de cartes, dominos, échecs, bibliothèque.</p><p>Différents ateliers fonctionnent régulièrement et des animations ponctuelles et diverses sont proposées (concerts, fêtes, sorties...) par un animateur. </p>;
1420;Parkings du centre ville;Parking Arc de Triomphe;Montpellier Centre;Centre historique;04 67 66 03 85;;;;;00063500;43.6109248173;3.87261741952;;;Avenue;Foch;;34000;Montpellier;;;0;;;;;;;;"<p>Parking public de 471 places g&#233;r&#233; par EFFIA<br><a id=""196"" href=""#"" typelien=""LienInterne"" libelle_ancre=""undefined"">Participe &#224; l'op&#233;ration ""ch&#232;que parking""</a></p>";"<p>Parking public de 471 places g&#233;r&#233; par EFFIA, offrant les services suivants : <br>- WC public<br>- Parc &#224; v&#233;lo <br>- Lanceur de batterie<br>- Prise pour voiture &#233;lectrique<br>- Accompagnement des clients &#224; leur voiture<br>- Lavage de voiture</p> <p><strong><br>Abonnements propos&#233;s :</strong> <br>- Abonnement par internet <br>- Abonnement r&#233;sident<br>- Abonnement travail</p>"
96;Ecoles élémentaires;Ecole élémentaire Paul Langevin;Les Cévennes;;04 67 92 85 70;;;;;965;43.6108135321;3.85413292601;5;;rue de Clémentville;;;34000;Montpellier;;;0;;;;;;;;<p> </p>;
564;Postes de Police municipale;Poste de police municipale centre historique;Montpellier Centre;;04 99 61 02 72;;;;;00300600;43.6107548211;3.87718584779;28;;rue Foch;;;34000;Montpellier;;;0;;;;;;;;<ul><li>Heures d'ouverture : du lundi au vendredi de 7h30 à 20h.</li><li>Ce poste couvre les quartiers : <br />- Centre historique <br />- Comédie</li><li>Brigade V.T.T</li></ul>;
